{"status":"ok","data":[{"id":"1676","name":"Piata Unirii - Faur Poarta 4","geometry":"qfdnGami~Ck@F}BPUJ}@h@QNORIVIVIxBO|CPVdAfBlBJ??zDNF@l@B^B??`CF??Nk@XkBF_E?@DgDLwA??]YcCFK@??PmK?@t@od@X_QJ{F@e@LgIHoD@g@@]@YDeCXwRD{C`@{TD_BDUHSPU??NI\\[Vi@FU~@mBDGdAaBrAkBf@s@??`@k@xAgBVSZOTE\\?tCHHDFF??tB{Ev@gBXw@Ps@BWRwBFaA?@HgAHyA\\kFFg@??]K_Gk@c@EUAeIs@}AM??KYMSQMYsCw@iJm@mHW{C[aEW}CwB_X?@_@sEMwAg@}FM}@o@iCc@oAo@{AsFkJU[c@s@w@eB??Gq@BsEA}@GcDEaACoAOkCIqA[mE_@yD??tDcA|Ba@nCc@??v@MfCc@xEw@JALC??Go@M{AWiDIeAIoAAYK_BCmAAgCBgBD_AHoAf@yE\\eCH_A@e@Ka@Gg@SwAFw@\\kBlAkH`@iBTiAFYFc@Ly@??Zy@t@}FF_@??mEwDc@_@k@i@a@[@?wAkAoAeA??uB{Ci@_@_@G??c@lA","color":"2F91C9","direction":"0","duration":"00:20","stops":[{"id":"15253","name":"Piata Unirii 4","latitude":"44.42747","longitude":"26.10408"},{"id":"11400","name":"Piata Unirii 1","latitude":"44.42758","longitude":"26.10096"},{"id":"15252","name":"Piata Unirii 3","latitude":"44.4257","longitude":"26.10331"},{"id":"11401","name":"I.C.Bratianu","latitude":"44.4265880887","longitude":"26.1046466721"},{"id":"11402","name":"Biblioteca Nationala a Romaniei","latitude":"44.4262126507","longitude":"26.1124787224"},{"id":"11403","name":"Traian","latitude":"44.42587","longitude":"26.11975"},{"id":"11404","name":"Lucian Blaga","latitude":"44.4256916306","longitude":"26.1237869156"},{"id":"16056","name":"Piata Alba Iulia","latitude":"44.4255","longitude":"26.12753"},{"id":"15163","name":"Depoul Dudesti","latitude":"44.42154","longitude":"26.1316"},{"id":"11182","name":"Ion Tuculescu","latitude":"44.4252012546","longitude":"26.1447081459"},{"id":"11183","name":"Soseaua Campia Libertatii","latitude":"44.4259061689","longitude":"26.1493108166"},{"id":"11184","name":"I.O.R.","latitude":"44.4285112131","longitude":"26.1553618801"},{"id":"11281","name":"Parcul Titan","latitude":"44.4286265219","longitude":"26.162110318"},{"id":"11282","name":"Liviu Rebreanu","latitude":"44.4250326869","longitude":"26.1643741024"},{"id":"11283","name":"Barajul Dunarii","latitude":"44.424802821","longitude":"26.1700389278"},{"id":"14182","name":"Barajul Dunarii","latitude":"44.42478","longitude":"26.17212"},{"id":"11314","name":"Liviu Rebreanu","latitude":"44.4238009785","longitude":"26.1774310959"},{"id":"11315","name":"Faur Poarta 4","latitude":"44.42715","longitude":"26.17964"}]},{"id":"1677","name":"Faur Poarta 4 - Piata Unirii","geometry":"g`dnGgbx~CACLCfBh@hAbA~ArAvCnCdAn@v@n@??U^SdA]~CB|@??Mx@Gb@GXUhAa@hBmAjH]jBGv@RvAFf@G`Au@vFGj@??QhBMjBCx@EhB?jCDjAHbB@XHnAHdAd@dG??cEt@UD}B^I@gEr@_C\\wD~@??Hr@^xDTxC?@Dp@HpANjCBnAD`AFbD@|@CrEFp@??@j@Lh@Th@b@t@R\\tEpHz@`BTn@\\~@`@zAVbBTxBPfCn@pHTfCFv@XjDh@xGVpClAzNb@dFHhAr@fJPhC??UHKLIRMj@bCLdAFpJx@dAJnEb@TF??_@rFInAIjAG`AQpBKr@EL??[|@s@dBuBrEEJ??uCI]?UD[NWRyAfBiA~AsAjBeA`BEFQBOAMGQO??Og@Ya@[SWIUAc@H_@TUZKRKb@Ez@@b@Ln@Xj@JLXj@FR@PCdBe@pYQlL??MpI?VA^Af@WvNAb@EpCEhBMlIIpF]dQItFI~EIdFKrFA~@eCD","color":"2F91C9","direction":"1","duration":"00:20","stops":[{"id":"11316","name":"Faur Poarta 4","latitude":"44.42641","longitude":"26.17896"},{"id":"14180","name":"Liviu Rebreanu","latitude":"44.4239","longitude":"26.17618"},{"id":"14181","name":"Barajul Dunarii","latitude":"44.42495","longitude":"26.17188"},{"id":"11279","name":"Barajul Dunarii","latitude":"44.4250633356","longitude":"26.1699316395"},{"id":"11280","name":"Liviu Rebreanu","latitude":"44.4254694295","longitude":"26.1633435977"},{"id":"11162","name":"Bulevardul Nicolae Grigorescu","latitude":"44.42923","longitude":"26.16119"},{"id":"11163","name":"I.O.R.","latitude":"44.4288330046","longitude":"26.1559626949"},{"id":"11164","name":"Soseaua Campia Libertatii","latitude":"44.42624","longitude":"26.15059"},{"id":"11165","name":"Ion Tuculescu","latitude":"44.4253698218","longitude":"26.1446008575"},{"id":"15162","name":"Depoul Dudesti","latitude":"44.42147","longitude":"26.13209"},{"id":"11383","name":"Piata Alba Iulia","latitude":"44.4257605894","longitude":"26.1273488892"},{"id":"11384","name":"Lucian Blaga","latitude":"44.4259831726","longitude":"26.1224350822"},{"id":"11385","name":"Traian","latitude":"44.4261743405","longitude":"26.1184117687"},{"id":"11386","name":"Biblioteca Nationala a Romaniei","latitude":"44.4265114689","longitude":"26.1113307369"},{"id":"15253","name":"Piata Unirii 4","latitude":"44.42747","longitude":"26.10408"}]}]}