{"status":"ok","data":[{"id":"1738","name":"CFR Progresu - Depoul Militari","geometry":"_zxmGsmf~CNBNAHIBMBOAOCKKMu@[wAU??wLqBcGiA_@IwOkC}GoA{LoBiGiAc@E_@A{BBaPT??oRRiEHm@Ce@I_A[SI_GsBuI{C?Aw]cMmI{CuEmAmASqAG{@G??WA_BAuB@i@DUAIEGMS_@SCo@LeB~@cCrAkAn@ST[b@Sd@cArBiHxNsCrFi@v@kAtBUXa@`@iGlD}@d@??gCrASLcApApJnG~AzAPZDJ?p@GT_MxP_UbY??iC~C_GvHaIjKcK|NiJlNQV{CbEeHdKaLtOsJvLg@f@eAv@ELERDxB?rCA?rAhi@`@pS??RjHP|J@dC\\dTh@|W`@|Kj@~LRbE`AbX`@hKd@vO`@`KN~D??z@tVHvBN|Af@xC|DrRZ~BHv@L~BLvFz@xWtAj`@VpFITsFh@]@]A_@IWO_LiJ??kKmIQGwIxBOPMZA\\@ZnAl]hCvr@jDp~@Hb@Lr@DlB","color":"901939","direction":"0","duration":"00:45","stops":[{"id":"10450","name":"CFR Progresul","latitude":"44.3691333706","longitude":"26.0887781871"},{"id":"10451","name":"Raducanu Cristea","latitude":"44.373","longitude":"26.09025"},{"id":"10452","name":"Anghel Nutu","latitude":"44.3758326818","longitude":"26.091014613"},{"id":"10453","name":"Luica","latitude":"44.37853","longitude":"26.09171"},{"id":"10554","name":"Cimitirul evreiesc","latitude":"44.38249","longitude":"26.09236"},{"id":"10555","name":"Drumul Gazarului","latitude":"44.3861073554","longitude":"26.0922226799"},{"id":"10556","name":"Toporasi","latitude":"44.38928","longitude":"26.09219"},{"id":"10557","name":"Piata Progresul","latitude":"44.3929615026","longitude":"26.0938749207"},{"id":"10558","name":"Muzeul Bacovia","latitude":"44.39741","longitude":"26.09596"},{"id":"10465","name":"Sura Mare","latitude":"44.40161","longitude":"26.09735"},{"id":"10466","name":"Piata Eroii Revolutiei","latitude":"44.40612","longitude":"26.0947"},{"id":"10467","name":"Stefan Hepites","latitude":"44.40832","longitude":"26.0911"},{"id":"10468","name":"Dr. Constantin Istrati","latitude":"44.41099","longitude":"26.08919"},{"id":"10469","name":"Spatarul Preda","latitude":"44.4113","longitude":"26.08374"},{"id":"10470","name":"Calea Rahovei","latitude":"44.4162","longitude":"26.07782"},{"id":"10471","name":"Inox","latitude":"44.419","longitude":"26.07447"},{"id":"10472","name":"Calea 13 Septembrie","latitude":"44.42299","longitude":"26.06913"},{"id":"10473","name":"APRODEX","latitude":"44.42574","longitude":"26.06558"},{"id":"10474","name":"Piata Danny Huwe","latitude":"44.42885","longitude":"26.06183"},{"id":"10475","name":"Bd. Vasile Milea","latitude":"44.4287337857","longitude":"26.0549077881"},{"id":"10643","name":"Sibiu","latitude":"44.42836","longitude":"26.04886"},{"id":"10644","name":"Sergent Moise","latitude":"44.428","longitude":"26.03995"},{"id":"10645","name":"Brasov","latitude":"44.4273","longitude":"26.03216"},{"id":"10646","name":"Compasului","latitude":"44.42708","longitude":"26.02932"},{"id":"10647","name":"Romancierilor","latitude":"44.42658","longitude":"26.02334"},{"id":"10648","name":"Frigocom","latitude":"44.42613","longitude":"26.01739"},{"id":"10649","name":"Valea Oltului","latitude":"44.4247338611","longitude":"26.0122070206"},{"id":"10650","name":"Radox","latitude":"44.42424","longitude":"26.00604"},{"id":"10651","name":"Comautosport","latitude":"44.42374","longitude":"25.99997"},{"id":"10652","name":"C.F.R. Cotroceni","latitude":"44.42816","longitude":"26.00155"},{"id":"10653","name":"Cesarom","latitude":"44.43154","longitude":"26.00063"},{"id":"10654","name":"Urbis","latitude":"44.43096","longitude":"25.99389"},{"id":"10655","name":"S.C. Vest","latitude":"44.43058","longitude":"25.98924"},{"id":"10656","name":"Inscut","latitude":"44.43007","longitude":"25.98308"},{"id":"10657","name":"Depoul Militari","latitude":"44.42955","longitude":"25.97742"}]},{"id":"1083","name":"Depoul Militari - CFR Progresul","geometry":"stdnGaaq}CYyGUyGq@uP{Aib@yDseAAEAG@M@OBKNURM`IoBnBnB|ChCpDxC??xE|DrCzBb@R\\J`@BlBMnDYXKHUCmAKkAYuFg@gN[uJy@mU]oNIgAOoBgBiIaB_I??YuASqAUkEO{Di@iNgB}g@GeCKyCYaHi@cOo@eNSsE_@{JUuM[wQ??QyNCkEI{EWgGMmI[cMa@cNw@_[Bo@He@Dg@nAsBxLoOf@s@??rHiKdHeK`DkER[`JaNbK}NhPgTbBoBbGuH|HyJ??zD_F~LyPTa@B[Aa@IWOUsBkBsGkEIQCWDYtEsCfDcBhBkAv@}@bDwFlA_C??fEyI`BeDj@cA\\i@^a@f@g@lCqAjBcAbAc@dAMrAEhE?bBFpAHj@H^JvBd@lA^~CfAjE|AdUdInDnAjAb@hLbEtCfAj@RlBf@l@Bt@?bBGx@?p@A??jLQhPWvFEn@BtAN`Dn@|E`AfG`AhFz@~HrAhIvAbU|D","color":"901939","direction":"1","duration":"00:45","stops":[{"id":"10608","name":"Depou Militari","latitude":"44.42968","longitude":"25.97928"},{"id":"10609","name":"Inscut","latitude":"44.43005","longitude":"25.98347"},{"id":"10610","name":"S.C. Vest","latitude":"44.43057","longitude":"25.98971"},{"id":"10611","name":"Urbis","latitude":"44.43095","longitude":"25.99444"},{"id":"10612","name":"Cesarom","latitude":"44.43157","longitude":"26.00132"},{"id":"10613","name":"C.F.R. Cotroceni","latitude":"44.42858","longitude":"26.00182"},{"id":"10614","name":"Comautosport","latitude":"44.4237611343","longitude":"26.0006949795"},{"id":"10615","name":"Radox","latitude":"44.42425","longitude":"26.00658"},{"id":"10616","name":"Valea Oltului","latitude":"44.42483","longitude":"26.01291"},{"id":"10617","name":"Frigocom","latitude":"44.4261","longitude":"26.01799"},{"id":"10618","name":"Romancierilor","latitude":"44.42658","longitude":"26.02394"},{"id":"10619","name":"Compasului","latitude":"44.42698","longitude":"26.02893"},{"id":"10620","name":"Brasov","latitude":"44.4274","longitude":"26.03411"},{"id":"10621","name":"Sergent Moise","latitude":"44.42793","longitude":"26.04062"},{"id":"10622","name":"Sibiu","latitude":"44.4282430521","longitude":"26.0481915367"},{"id":"10623","name":"Bd. Vasile Milea","latitude":"44.42857","longitude":"26.05391"},{"id":"10545","name":"Piata Danny Huwe","latitude":"44.42854","longitude":"26.0621"},{"id":"10546","name":"APRODEX","latitude":"44.42539","longitude":"26.06595"},{"id":"10547","name":"Calea 13 Septembrie","latitude":"44.42251","longitude":"26.06964"},{"id":"10548","name":"Inox","latitude":"44.41869","longitude":"26.07472"},{"id":"10549","name":"Calea Rahovei","latitude":"44.4151","longitude":"26.07912"},{"id":"10550","name":"Spatarul Preda","latitude":"44.41154","longitude":"26.08339"},{"id":"10551","name":"Sos.Viilor","latitude":"44.41095","longitude":"26.08841"},{"id":"10552","name":"Stefan Hepites","latitude":"44.4077","longitude":"26.09194"},{"id":"10553","name":"Piata Eroii Revolutiei","latitude":"44.40568","longitude":"26.09535"},{"id":"10569","name":"Sura Mare","latitude":"44.4006427135","longitude":"26.0971686733"},{"id":"10570","name":"Muzeul Bacovia","latitude":"44.39769","longitude":"26.09599"},{"id":"10571","name":"Piata Progresul","latitude":"44.3932528244","longitude":"26.0939071072"},{"id":"10572","name":"Toporas","latitude":"44.38975","longitude":"26.09235"},{"id":"10573","name":"Drumul Gazarului","latitude":"44.38638","longitude":"26.09214"},{"id":"10574","name":"Cimitirul Evreiesc","latitude":"44.3826","longitude":"26.09229"},{"id":"10575","name":"Luica","latitude":"44.37911","longitude":"26.09177"},{"id":"10461","name":"Anghel Nutu","latitude":"44.3762352833","longitude":"26.0910189045"},{"id":"10462","name":"Raducanu Cristea","latitude":"44.3734818174","longitude":"26.0902694953"},{"id":"10463","name":"CFR Progresul","latitude":"44.36954","longitude":"26.08905"}]}]}