{"status":"ok","data":[{"id":"1907","name":"Ghencea - Sat Pruni","geometry":"qzanGuf~}CAASyFq@oMoFuWgEiSwA_Hv@|@`Ar@fAp@rPrG~GjCt@X??hb@pPdRjHjNjFfD|Ad@\\\\j@JXV`@@HHPJLTNr@L`ABbBLvBLrCP??|G`@tL|@vOdAvL`AtAFvCTbCNzJp@zK|@xKt@LBp@CXG`JuAdEm@dBQX?VFx@V|Av@zLfGdZbOtO~H~MvGn@`@bAd@pDdBzAt@~@f@h@PfAX|DhAvDbA??bItB~@VhAd@|BvAx@v@`AlAdAjAx@rAn@~@`GzCpFlCpFlCpFhCj@jA`@j@JJjAn@Ad@@XJt@PVb@RxD~AlD~A|HfDxEzA`AH??`@BdBb@~GpCNPvAfCzBjE?NBb@O`As@jEI`AmB~Jw@rEmAdH@rBWfCGvAItC?hCBlBYrBg@vCCZ@^H\\PV|@b@dDdB|BbAjIvDzHfDpBr@hCnA`LxErB`A??bCbAtErB~TbKd@f@zArBAn@l@x@`Cn@`@^Tb@zBbEz@vAdAfArClDbCfDdBxBhAfA|@jAbBnAvAtAy@vCw@fBqAxByAzB_BtCiArBg@r@yAhDyAdCwA`Co@nAm@|AM\\oBCuABmAJu@P{@`@e@j@}@|AGL??Yd@IO","color":"2F91C9","direction":"0","duration":"00:50","stops":[{"id":"11624","name":"Ghencea","latitude":"44.4152970768164","longitude":"26.0467104208946"},{"id":"11626","name":"Cimitirul Ghencea","latitude":"44.41596","longitude":"26.05144"},{"id":"11273","name":"Calea 13 Septembrie","latitude":"44.4178604466","longitude":"26.0583946598"},{"id":"11274","name":"Piata 13 Septembrie","latitude":"44.4154771677","longitude":"26.0570964706"},{"id":"11275","name":"Trambitei","latitude":"44.4110552002","longitude":"26.0549077881"},{"id":"11276","name":"Manea Serban","latitude":"44.4085720076","longitude":"26.0536632431"},{"id":"11277","name":"Tacerii","latitude":"44.4029001232","longitude":"26.0509166611"},{"id":"12181","name":"Soseaua Magurele","latitude":"44.3992514312156","longitude":"26.048792351532"},{"id":"14114","name":"Venus","latitude":"44.39373","longitude":"26.04802"},{"id":"14115","name":"Soseaua Vartejului","latitude":"44.38893","longitude":"26.0474"},{"id":"14116","name":"Slatina","latitude":"44.38412","longitude":"26.04674"},{"id":"14117","name":"Curtea de Arges","latitude":"44.38155","longitude":"26.04638"},{"id":"14118","name":"Pecinisca","latitude":"44.3782","longitude":"26.04697"},{"id":"15170","name":"I.A.I. Magurele","latitude":"44.37606","longitude":"26.04642"},{"id":"15172","name":"Stenyon","latitude":"44.3746","longitude":"26.04549"},{"id":"15168","name":"Cimitir Magurele","latitude":"44.37149","longitude":"26.04376"},{"id":"15174","name":"Facultativa","latitude":"44.36892","longitude":"26.04215"},{"id":"15167","name":"Rocon","latitude":"44.36537","longitude":"26.04011"},{"id":"15177","name":"Pasaj C.F.R. Magurele","latitude":"44.36186","longitude":"26.03811"},{"id":"15179","name":"Atomistilor 94","latitude":"44.35455","longitude":"26.03369"},{"id":"15180","name":"Facultatea de Fizica","latitude":"44.35042","longitude":"26.03085"},{"id":"15182","name":"A.C.R.","latitude":"44.34836","longitude":"26.02911"},{"id":"15186","name":"Pod Ciorogarla","latitude":"44.34603","longitude":"26.02787"},{"id":"15185","name":"Bufet","latitude":"44.34382","longitude":"26.02715"},{"id":"15246","name":"Statie desfiintata","latitude":"44.33851","longitude":"26.00996"},{"id":"15189","name":"Dumitrana","latitude":"44.32715","longitude":"26.00269"},{"id":"15192","name":"S.C. Ispas Marin","latitude":"44.32536","longitude":"26.0004"},{"id":"15191","name":"Scoala Generala","latitude":"44.32269","longitude":"25.99753"},{"id":"15194","name":"Sat Dumitrana","latitude":"44.32482","longitude":"25.994"},{"id":"15196","name":"Sat Pruni","latitude":"44.32978","longitude":"25.98916"}]},{"id":"1908","name":"Sat Pruni - Ghencea","geometry":"adqmGm~r}CDH`@s@|@}Ad@k@z@a@t@Q|AK??dACnBBz@{B`FwIxAiDf@s@hDiGjDuFv@gBx@wCwAuAcBoA}@kAiAgAW]??kE}FyAeB_AmAeAgAcCkEiAsBa@_@eAW{@Wm@y@@o@{AsBe@g@mAk@uK_FkPkHuEuBaE_BgCiAuBeA_A]gBq@qCmAmFcCuCoAuCqAuCuAgB}@]SQWI]A_@PyAf@}CJo@@g@EqC@gCLmCLoAJmAAsBzBuMb@kCrAwG@a@PmAx@_FCs@yC}FiAgB_HqCeBc@cBMyE{A}HgDmD_ByD_Bc@SQWKu@AY@e@kAo@KKa@k@k@kAqFiCuGcD??mEwBaG{Co@_Ay@sAeAkAaAmAy@w@}BwAiAe@_AW_Dy@{I_CeGcBi@Q_Ag@{Au@uFkCo@a@_NwGuO_IeZcO{LgG}Aw@y@WWGY?eBPgPbCYFq@BMCyKu@iAK??eKw@}BOcGe@gEWm@EaAEmJw@{DW_F]kHg@cBKkHi@{Ls@eDUo@w@QYK_@Oc@QKmCaAq@M_Ac@o@YkNkFiG_CsQgHySiImNqF??eRkHe@WiBoAe@c@Y_@KEUGPr@xBhKvB|J|CdOhBvIPfATzDZnGZvIFzA","color":"2F91C9","direction":"1","duration":"00:50","stops":[{"id":"15196","name":"Sat Pruni","latitude":"44.32978","longitude":"25.98916"},{"id":"15195","name":"Sat Dumitrana","latitude":"44.32465","longitude":"25.99409"},{"id":"15190","name":"Scoala Generala","latitude":"44.32245","longitude":"25.99738"},{"id":"15193","name":"S.C. Ispas Marin","latitude":"44.32543","longitude":"26.00068"},{"id":"15188","name":"Dumitrana","latitude":"44.32718","longitude":"26.00293"},{"id":"15247","name":"Statie desfiintata","latitude":"44.33978","longitude":"26.01108"},{"id":"15184","name":"Bufet","latitude":"44.34364","longitude":"26.02718"},{"id":"15187","name":"Pod Ciorogarla","latitude":"44.34621","longitude":"26.02816"},{"id":"15183","name":"A.C.R.","latitude":"44.34805","longitude":"26.02909"},{"id":"15181","name":"Facultatea de Fizica","latitude":"44.35094","longitude":"26.03172"},{"id":"15178","name":"Atomistilor 45","latitude":"44.35465","longitude":"26.0339"},{"id":"15176","name":"Pasaj C.F.R. Magurele","latitude":"44.36201","longitude":"26.0384"},{"id":"15166","name":"Rocon","latitude":"44.36549","longitude":"26.04035"},{"id":"15175","name":"Facultativa","latitude":"44.36915","longitude":"26.04254"},{"id":"15169","name":"Cimitir Magurele","latitude":"44.37163","longitude":"26.04399"},{"id":"15173","name":"Stenyon","latitude":"44.37484","longitude":"26.04588"},{"id":"15171","name":"I.A.I. Magurele","latitude":"44.37614","longitude":"26.04664"},{"id":"15197","name":"Pecinisca","latitude":"44.3784","longitude":"26.04708"},{"id":"14119","name":"Curtea de Arges","latitude":"44.38173","longitude":"26.04652"},{"id":"14120","name":"Slatina","latitude":"44.38483","longitude":"26.04692"},{"id":"14121","name":"Soseaua Vartejului","latitude":"44.38926","longitude":"26.04758"},{"id":"14122","name":"Venus","latitude":"44.39416","longitude":"26.04822"},{"id":"14123","name":"Soseaua Alexandriei","latitude":"44.39923","longitude":"26.04894"},{"id":"11263","name":"Tacerii","latitude":"44.4022179271","longitude":"26.0507557285"},{"id":"11264","name":"Manea Serban","latitude":"44.4089169018","longitude":"26.0540065659"},{"id":"11265","name":"Trambitei","latitude":"44.4114154076","longitude":"26.0552511108"},{"id":"11266","name":"Piata 13 Septembrie","latitude":"44.4156994068","longitude":"26.0573217762"},{"id":"11267","name":"Calea 13 Septembrie","latitude":"44.4179600671","longitude":"26.058641423"},{"id":"11605","name":"Petre Ispirescu","latitude":"44.4182167806","longitude":"26.05811571"},{"id":"11606","name":"Cimitirul Ghencea","latitude":"44.41603","longitude":"26.05111"},{"id":"11715","name":"Ghencea","latitude":"44.4149100710411","longitude":"26.0458848369598"}]}]}