{"status":"ok","data":[{"id":"1638","name":"Universitatea Crestina D. Cantemir - Zetarilor","geometry":"sabnGsjk~CACb@g@v@~BcAHqAZUTXn@z@jBLX??j@nAVhAHlAJzERlID~B??FfAPz@Tl@|FrK`BvCb@r@dFhJpD|Gb@x@fCvDvB~CfEtGx@x@~@t@bD~BfAx@LDd@Dx@B`@GrAo@dBy@`CWlCqAjBcAbAc@dAMdCGvC@bABbAFl@Dj@HzAZz@T??lA^~CfAbOlFlKtDnDnAjAb@hLbEtCfAj@RIlEKvBm@~BiBlGc@nBo@xB??eA|CUj@a@r@WZk@b@iBnA}@b@yBt@_Cv@aDtA[PKJjDdChBpAl@\\`JrFlIbFz@j@n@j@x@x@bBnBhAjA^T|GlD","color":"2F91C9","direction":"0","duration":"00:20","stops":[{"id":"14167","name":"Universitatea Crestina D. Cantemir","latitude":"44.41644","longitude":"26.1138"},{"id":"14168","name":"Liceul Gheorghe Sincai","latitude":"44.41479","longitude":"26.10575"},{"id":"11524","name":"Adesgo","latitude":"44.4107517045","longitude":"26.0994346035"},{"id":"11525","name":"Cutitul de Argint","latitude":"44.40827","longitude":"26.09634"},{"id":"11526","name":"Cimitirul Eroilor Revolutiei","latitude":"44.40663","longitude":"26.09547"},{"id":"11887","name":"Piata Eroii Revolutiei","latitude":"44.40473","longitude":"26.09619"},{"id":"14170","name":"Sura Mare","latitude":"44.40085","longitude":"26.09715"},{"id":"14172","name":"Muzeul Bacovia","latitude":"44.3974","longitude":"26.0958"},{"id":"14174","name":"Piata Progresul","latitude":"44.39285","longitude":"26.09368"},{"id":"14176","name":"Toporas","latitude":"44.38961","longitude":"26.09148"},{"id":"14178","name":"C.F.R.","latitude":"44.39115","longitude":"26.0869"},{"id":"11877","name":"Vadul Nou","latitude":"44.3928660560276","longitude":"26.0825452697754"},{"id":"10632","name":"Valtoarei","latitude":"44.3899834205778","longitude":"26.0805706274986"},{"id":"11879","name":"Zetarilor","latitude":"44.38674","longitude":"26.07791"}]},{"id":"1639","name":"Zetarilor - Universitatea Crestina D. Cantemir","geometry":"aj|mGold~CCDmCuAiAq@o@q@cBmBsAwAgAy@oPcKoEkCkAw@gDeC[WTK`DuAxFmB|@c@hBoAx@s@V_@h@kAhAiDj@oBb@mBj@eBr@mCb@}AR{@FcANmFEm@EQ{Ai@wBu@iIwC??o_@}MmI{CuEmAmASqAGeAGmAEa@@{B@i@DMAIEUg@MIK?o@L_FlCuAt@oCnAqDfBWBi@Ay@IoA{@cE}CWUi@q@sEuGc@q@??mC_EwIsOaHgMz@s@NS`Ak@uE?cB{CkBkDUy@MkCQeHUiJEk@M{@Mc@uByEq@uApAuA","color":"2F91C9","direction":"1","duration":"00:20","stops":[{"id":"11855","name":"Zetarilor","latitude":"44.3870925926806","longitude":"26.0783283007622"},{"id":"11856","name":"Valtoarei","latitude":"44.38942","longitude":"26.08033"},{"id":"11857","name":"Vadul Nou","latitude":"44.3924976845962","longitude":"26.0824379814148"},{"id":"14179","name":"C.F.R.","latitude":"44.3913","longitude":"26.08646"},{"id":"14177","name":"Toporas","latitude":"44.38992","longitude":"26.0926"},{"id":"14175","name":"Piata Progresul","latitude":"44.3936","longitude":"26.09427"},{"id":"14173","name":"Muzeul Bacovia","latitude":"44.39793","longitude":"26.09626"},{"id":"14171","name":"Sura Mare","latitude":"44.40148","longitude":"26.09742"},{"id":"11559","name":"Cimitirul Eroilor Revolutiei","latitude":"44.40612","longitude":"26.09603"},{"id":"11560","name":"Cutitul de Argint","latitude":"44.40916","longitude":"26.09756"},{"id":"11561","name":"Adesgo","latitude":"44.41173","longitude":"26.10118"},{"id":"14169","name":"Liceul Gheorghe Sincai","latitude":"44.41459","longitude":"26.10553"},{"id":"14167","name":"Universitatea Crestina D. Cantemir","latitude":"44.41644","longitude":"26.1138"}]}]}