{"status":"ok","data":[{"id":"1120","name":"Mezes - Gara de Nord","geometry":"amonG}uy}CRo@?y@Uj@z@qC|@yC~@}CV{@f@cB|@_Dv@oCbAgD`AeDv@kCdAgD~@}C~@_DLg@n@sBn@sBNm@~@{C~@}C~@aDpAiEjA_EnAiErAoEnAgEpAcEb@eBN}@Dc@BS?_AEuCDc@L_@??ROTOxJeH??v@k@ROtCsBnCqBnCmBv@i@JG??Re@b@wCNeAFc@ZqBVgBjAgIDYDWJs@Jq@Ly@pA_GpAgEd@yA^oA@EtAuE\\gAVy@b@qAJa@Ni@b@wAfBuF\\oAxA_FlAwDnAcEPm@Ts@p@_Cr@yBn@qBN_@XcA|@wClAaDvAyBlAcBvAkB~B}CV_@HKHM|@kAdBeCn@aA^e@vBuC??HMdCgD\\g@~@oAb@q@h@s@hBkCHO^e@bBuBLOzDmE^c@f@g@r@y@X[zAeBdBqBvBgCfGaHzAqB??b@K\\SFC??TBXD|EbC@@~@d@pCrAbAd@p@Z??ClFg@zBK^[tA??WfAm@dCw@dD??xA~ArAxArAzAj@r@Nd@JP|AdB","color":"901939","direction":"0","duration":"00:25","stops":[{"id":"10964","name":"Mezes","latitude":"44.48477","longitude":"26.02344"},{"id":"10965","name":"Marmurei","latitude":"44.48235","longitude":"26.0298"},{"id":"10966","name":"Crinului","latitude":"44.48076","longitude":"26.03375"},{"id":"10967","name":"Minerva","latitude":"44.47907","longitude":"26.03798"},{"id":"10968","name":"Navigatiei","latitude":"44.47784","longitude":"26.04101"},{"id":"10969","name":"Bd. Bucurestii Noi","latitude":"44.47667","longitude":"26.04501"},{"id":"10761","name":"Carpati","latitude":"44.47228","longitude":"26.04908"},{"id":"10762","name":"Clabucet","latitude":"44.47105","longitude":"26.05167"},{"id":"10763","name":"Aviator Popisteanu","latitude":"44.4688592389","longitude":"26.0587487114"},{"id":"10764","name":"Piata Domenii","latitude":"44.46612","longitude":"26.06544"},{"id":"10765","name":"Maresal Averescu","latitude":"44.46237","longitude":"26.0723"},{"id":"10766","name":"Piata Ion Mihalache","latitude":"44.45824","longitude":"26.07757"},{"id":"15487","name":"Piata Victoriei","latitude":"44.45245","longitude":"26.08412"},{"id":"15498","name":"Doctor Felix","latitude":"44.44899","longitude":"26.0822"},{"id":"15499","name":"Gara de Nord","latitude":"44.44787","longitude":"26.07622"}]},{"id":"1119","name":"Gara de Nord - Mezes","geometry":"efhnGy~c~C??|@bA??Ru@z@}CXmAPu@b@eBZsA`@iBx@mEhAwGBODQ??kHcBm@[_CdAXyADQ??DQ??qEmB_Bu@}H_E{BiA]KKCO???[JKFa@z@??{ApBgG`HwBfCeBpB{AdBYZs@x@g@f@_@b@{DlEMNcBtB_@d@INwApB??QXi@r@c@p@_AnA]f@eCfDaCbD_@d@o@`AeBdC}@jAILIJW^_C|CwAjBmAbBwAxBmA`D}@vCYbAO^o@pBs@xBq@~BUr@Ql@oAbEmAvDyA~E]nAgBtFc@vAOh@K`@c@pAWx@]fAuAtEAD_@nAe@xAqAfEqA~FMx@Kp@Kr@EVEXkAfIWfB[pBGb@OdAc@vCSd@??KFw@h@k@`@??cBjAoCpBuCrBSNqLpIUNSN??M^Eb@DtC?~@CREb@O|@c@dBqAbEoAfEsAnEoAhEkA~DqAhE_A`D_A|C_AzCOl@o@rBo@rBMf@_A~C_A|CeAfDw@jCaAdDcAfDw@nC}@~Cg@bBWz@_A|C}@xC{@pCENe@rAY`@c@L","color":"901939","direction":"1","duration":"00:25","stops":[{"id":"15499","name":"Gara de Nord","latitude":"44.44787","longitude":"26.07622"},{"id":"15500","name":"Buzesti","latitude":"44.44591","longitude":"26.0807"},{"id":"15489","name":"Piata Buzesti","latitude":"44.44777","longitude":"26.08237"},{"id":"15490","name":"Piata Victoriei","latitude":"44.4516","longitude":"26.0845"},{"id":"10770","name":"Piata Ion Mihalache","latitude":"44.45778","longitude":"26.07826"},{"id":"10771","name":"Maresal Averescu","latitude":"44.462","longitude":"26.07291"},{"id":"10772","name":"Piata Domenii","latitude":"44.46575","longitude":"26.06647"},{"id":"10773","name":"Aviator Popisteanu","latitude":"44.46868","longitude":"26.05935"},{"id":"10774","name":"Clabucet","latitude":"44.47094","longitude":"26.05254"},{"id":"10775","name":"Carpati","latitude":"44.47255","longitude":"26.04898"},{"id":"10970","name":"Soseaua Chitilei","latitude":"44.47674","longitude":"26.04478"},{"id":"10971","name":"Navigatiei","latitude":"44.47802","longitude":"26.04079"},{"id":"10972","name":"Minerva","latitude":"44.47925","longitude":"26.03773"},{"id":"10973","name":"Crinului","latitude":"44.48092","longitude":"26.03356"},{"id":"10974","name":"Subcetate","latitude":"44.48251","longitude":"26.02959"},{"id":"10975","name":"Mezes","latitude":"44.485379483","longitude":"26.023117174"}]}]}