{"status":"ok","data":[{"id":"1636","name":"Turnu Magurele - Piata Sfanta Vineri","geometry":"anzmG{ol~C?A{CxC}CrC{@t@cHvGcD~CiA`AkAl@sAX_@Fu@Bw@CcAU{@Su@_@kBgAkB_AoDkBkFoCcCuAcCuA[SEIMMQEQ@sCs@sAsAeCgBo@_@??wDsBeAe@_@MmCUg@Io@UY@QLUL]BuA@cEI}HQoEGu_@g@{EGkLUWo@KOYS[AMp@EdBIf@a@h@a@f@Wf@iA`C]j@Oh@CPDj@TbBFh@?f@AjBA|BMhGIxAWlBY`BQl@s@zBaA|B]r@m@dAa@z@e@fA}@lCiDhL??}BtHm@tA_@j@o@x@i@`@cDpByAp@a@ZYN]F}K`@wNh@eFReDC_GGqBCqBAYMs@AgDAoC@QBUDsAb@w@DECIIOUM[b@wVA?b@}V}DMsBKGAw@TsDdA??}@VoA\\_@Dm@Bq@Eu@Ie@I}AKiBGKBO@]J[VAAKFh@dA??vCrGr@lBdEdLb@pA","color":"2F91C9","direction":"0","duration":"00:30","stops":[{"id":"11189","name":"Turnu Magurele","latitude":"44.3774392369082","longitude":"26.119902540493"},{"id":"11190","name":"Aliorului","latitude":"44.3792178988","longitude":"26.118132819"},{"id":"11191","name":"Straduintei","latitude":"44.3819860473","longitude":"26.1155686272"},{"id":"11192","name":"Dragos Mladinovici","latitude":"44.385551475","longitude":"26.1162445438"},{"id":"11193","name":"Emil Racovita","latitude":"44.3883883269","longitude":"26.118132819"},{"id":"11194","name":"Piata Sudului","latitude":"44.3921220277","longitude":"26.1204931629"},{"id":"14153","name":"Pridvorului","latitude":"44.40002","longitude":"26.12113"},{"id":"14155","name":"Costache Stamate","latitude":"44.40349","longitude":"26.12122"},{"id":"11759","name":"Bulevardul Tineretului","latitude":"44.4078998414637","longitude":"26.1203676355361"},{"id":"14157","name":"Palatul National al Copiilor","latitude":"44.40847","longitude":"26.11604"},{"id":"14159","name":"Parcul Tineretului","latitude":"44.40975","longitude":"26.11216"},{"id":"14160","name":"Visana","latitude":"44.4107","longitude":"26.11021"},{"id":"11562","name":"Liceul Gh. Sincai","latitude":"44.4152","longitude":"26.10459"},{"id":"11563","name":"Marasesti","latitude":"44.42033","longitude":"26.10424"},{"id":"11401","name":"I.C.Bratianu","latitude":"44.4265880887","longitude":"26.1046466721"},{"id":"11564","name":"Mircea Voda","latitude":"44.4270202226","longitude":"26.1120946301"},{"id":"11565","name":"Matei Basarab","latitude":"44.4309736393","longitude":"26.1115581882"},{"id":"11521","name":"Piata Sfanta Vineri","latitude":"44.4300006332","longitude":"26.10647272"}]},{"id":"1637","name":"Piata Sfanta Vineri - Turnu Magurele","geometry":"cvdnG}|i~CC@pCvIz@hDFz@SxC_@`FrAnBHHr@HrBH??pEPbBFh@MFg@RkBL{FDuCFOHKJIPAnD@??fE?TKnA@d@?bDBhD?pC@bCEdDOzCGlDQ`DOlFQdEMZMz@m@z@s@NS`Ak@jCgBn@y@^k@l@uA^oADK??`GcS|@mCd@gA`@{@l@eA\\s@`A}Br@{BPm@XaBVmBHyALiGBiF@iAFq@PkBd@cCZcAP[v@_Af@c@TKTMRUZe@~FJ??fW\\fORhTZbEJpAFd@PXHz@MrAWj@?h@@~@?z@^`EzB`Ah@hBtArArArBxCFNNLRFREPKnALVFbBr@rJjFxKxFt@Pb@FjAFf@?dAK`@Mf@Qp@]~@g@n@c@j@k@zGoGbFwEtDkDf@a@VM^MVK","color":"2F91C9","direction":"1","duration":"00:30","stops":[{"id":"11521","name":"Piata Sfanta Vineri","latitude":"44.4300006332","longitude":"26.10647272"},{"id":"11400","name":"Piata Unirii 1","latitude":"44.42758","longitude":"26.10096"},{"id":"11522","name":"Marasesti","latitude":"44.42028","longitude":"26.10385"},{"id":"14165","name":"Liceul Gheorghe Sincai","latitude":"44.41322","longitude":"26.10533"},{"id":"14158","name":"Palatul National al Copiilor","latitude":"44.40905","longitude":"26.11306"},{"id":"11758","name":"Soseaua Mihai Bravu","latitude":"44.407869183755","longitude":"26.1200457704544"},{"id":"14156","name":"Costache Stamate","latitude":"44.40426","longitude":"26.12093"},{"id":"14154","name":"Pridvorului","latitude":"44.39936","longitude":"26.12082"},{"id":"14164","name":"Piata Sudului","latitude":"44.39333","longitude":"26.12061"},{"id":"11196","name":"Bulevardul Alexandru Obregia","latitude":"44.3880433117","longitude":"26.1174890888"},{"id":"11197","name":"Dragos Mladinovici","latitude":"44.385321454","longitude":"26.1157188309"},{"id":"11198","name":"Straduintei","latitude":"44.3817023373","longitude":"26.1155364407"},{"id":"11199","name":"Aliorului","latitude":"44.3787884791","longitude":"26.1182830227"},{"id":"14166","name":"Turnu Magurele","latitude":"44.37724","longitude":"26.11944"}]}]}