{"status":"ok","data":[{"id":"1240","name":"Ghencea - CET Vest Militari","geometry":"cxanGia~}CA?Q`@@H@FBBi@XO`A@fE??BhBXxF`AlO??`AlOb@bHAXEXMRsDv@wDj@iDVoBJqA@s@xHu@bGIrA??C~A?t@H|ANxAPfAZnAh@tArAfChCxEp@xA\\jA\\hBN~ABtB?r@^t@I~@UzASz@o@pBGLq@TCDe@v@I^?d@vB~EdA|B^vAJl@Dz@T~GRtFVxH}Ev@yDj@mKzAgB^eAL??{GbAgANqAFe@H{B\\wCn@mA\\K@F|@J`EPlFPlFFA??G@^tLDhAj@rPt@`RDv@Vl@Lb@Fx@h@lNtBvk@rAd]FtBNnA@\\Ud@ER","color":"2F91C9","direction":"0","duration":"00:25","stops":[{"id":"11715","name":"Ghencea","latitude":"44.4149100710411","longitude":"26.0458848369598"},{"id":"11608","name":"Cartier Tudor Vladimirescu","latitude":"44.4152284888464","longitude":"26.0426860344886"},{"id":"11417","name":"Brasov","latitude":"44.4148334359","longitude":"26.0351023567"},{"id":"11127","name":"Tricodava","latitude":"44.4182363214095","longitude":"26.0334924948692"},{"id":"11128","name":"Liceul Eugen Lovinescu","latitude":"44.4175845736193","longitude":"26.0274419677734"},{"id":"11129","name":"Raul Doamnei","latitude":"44.4163354658407","longitude":"26.0247383010864"},{"id":"11130","name":"Posta","latitude":"44.416964237846","longitude":"26.020489145565"},{"id":"11989","name":"Valea Argesului","latitude":"44.4158488430592","longitude":"26.0160162938118"},{"id":"12154","name":"Valea Ialomitei","latitude":"44.4214543394143","longitude":"26.0128657711029"},{"id":"12155","name":"Valea Oltului","latitude":"44.4246878878183","longitude":"26.010548342514"},{"id":"12156","name":"Textila Militari","latitude":"44.4242971130338","longitude":"26.0050873649597"},{"id":"11819","name":"Comat Auto","latitude":"44.4235308803836","longitude":"25.9981731665611"},{"id":"11820","name":"I.T.I.A.","latitude":"44.4229791866","longitude":"25.9915754688"},{"id":"11821","name":"Firos","latitude":"44.42254","longitude":"25.98705"},{"id":"11802","name":"CET Vest Militari","latitude":"44.4223431999","longitude":"25.9827992809"}]},{"id":"1239","name":"CET Vest Militari - Ghencea","geometry":"mfcnGiwq}CFJLBLGLI?Aa@kD??Ea@GuBcAmW??}Bqn@??w@uROs@HWGsA]cGe@iLg@sOc@qMg@}PNkAP]bCsBb@K`Dg@pAGfAO`JqA~Be@~@O??lLaBfC_@vCg@Cu@OyDKqDYgIMaDYwAm@cBu@_BsA{Ci@o@]?MJw@z@uA`B[LgAXmARgAJo@A??q@CmAUcAYg@gAYO[S]WcBeBs@cAi@_AGO{@e@Y{@YeA]{AM{@SmCEuCDuBf@eHDa@l@sAl@qHRsCPwCNkGB_C??B_G?m@p@CjCIlA?dJPfEJp@@d@A|Fc@rBY|Dm@|@QZMNKJQwAeUkBmZIaDCuB???uBBy@r@a@EUP_@","color":"2F91C9","direction":"1","duration":"00:25","stops":[{"id":"11802","name":"CET Vest Militari","latitude":"44.4223431999","longitude":"25.9827992809"},{"id":"11803","name":"Firos","latitude":"44.42247","longitude":"25.9874"},{"id":"11804","name":"I.T.I.A.","latitude":"44.4228872371","longitude":"25.9919938934"},{"id":"11805","name":"Comat Auto","latitude":"44.4234542565","longitude":"25.9985170258"},{"id":"12157","name":"Comautosport","latitude":"44.4238910109801","longitude":"26.0002379310608"},{"id":"12158","name":"Textila Militari","latitude":"44.424159191898","longitude":"26.0054628742218"},{"id":"12159","name":"Valea Oltului","latitude":"44.4241668541919","longitude":"26.0119109046936"},{"id":"12160","name":"Valea Ialomitei","latitude":"44.4207340459826","longitude":"26.012887228775"},{"id":"11093","name":"Valea Argesului","latitude":"44.4157618635921","longitude":"26.0154889715194"},{"id":"12161","name":"Drumul Taberei 85","latitude":"44.4176688683235","longitude":"26.0209875"},{"id":"12162","name":"Piata Valea Ialomitei","latitude":"44.421247447529","longitude":"26.0209231269836"},{"id":"12163","name":"Romancierilor","latitude":"44.4230098364453","longitude":"26.0255257976532"},{"id":"12164","name":"Poiana Muntelui","latitude":"44.4223125497911","longitude":"26.0303215873718"},{"id":"11443","name":"Piata Drumul Taberei","latitude":"44.42157","longitude":"26.03433"},{"id":"11444","name":"Parcul Drumul Taberei","latitude":"44.4173550617","longitude":"26.0342113269"},{"id":"11714","name":"Bulevardul Ghencea","latitude":"44.414940725","longitude":"26.0347697628"},{"id":"11715","name":"Ghencea","latitude":"44.4149100710411","longitude":"26.0458848369598"}]}]}