{"status":"ok","data":[{"id":"1218","name":"Giulesti Sarbi - Vasile Parvan","geometry":"kxlnGmhu}C??`DeDp@{@FS`@iDFw@CmBI}AMaAeBqJKu@Cm@AiABuBFqCLWPMzCsArBs@nAUp@Cl@Al@Qb@W??j@_@h@y@`@}@\\eARaBFuAJmEPy@f@oAL_@F_@?{@Mk@c@cAmAkC_BmDiMyYu@aBCGBEDSCQEOA[r@aKfA{Fh@_CfAkF??pJqd@lDmPxA}G`A_C`AyBdCwFbCoFdA}Bb@F~Dr@`Ej@??jEn@rBVfAAnASlAg@j@a@~@}@nCiCpEgE\\q@pBqBbC_ClFkFfAeAbAcANYLKn@c@r@e@x@]^KWk@kByC_BwCSy@M}@[gFO_C??a@kIOuCBwAYuHGgC@}ABeAHs@Vk@^Sv@c@??rCoA|@_@pAiAd@k@lDwF`H{KPQZS`Bm@lBu@hBgBDGNc@F}@Ak@AiAJi@t@}A\\_AhAyB??pG}JlLqQ`A{@vDwBdGiD`@[r@oAj@oA??lBqEvDqItBmERo@VoA`@_Cf@sCHcAZiHR{F??Du@","color":"2F91C9","direction":"0","duration":"00:30","stops":[{"id":"11976","name":"Giulesti-Sarbi","latitude":"44.4711676078205","longitude":"26.0007813466072"},{"id":"11977","name":"Scoala","latitude":"44.4699426141097","longitude":"26.0039999974251"},{"id":"11978","name":"Sculptorilor","latitude":"44.4706469886345","longitude":"26.0071542752266"},{"id":"11979","name":"Intrarea Caramidei","latitude":"44.4671862842501","longitude":"26.0106089604378"},{"id":"11980","name":"Poiana Lacului","latitude":"44.4677528737934","longitude":"26.0167458546638"},{"id":"11961","name":"Cartier 16 Februarie","latitude":"44.4701340210709","longitude":"26.0217240345955"},{"id":"11962","name":"Depou Giulesti","latitude":"44.4693837021798","longitude":"26.0252001774788"},{"id":"11963","name":"Institutul Pasteur","latitude":"44.4686410301119","longitude":"26.0275283349037"},{"id":"11964","name":"Copsa Mica","latitude":"44.4673394170958","longitude":"26.0317018521309"},{"id":"11965","name":"Piata Giulesti","latitude":"44.4662291948221","longitude":"26.0353711140633"},{"id":"11966","name":"Goldeni","latitude":"44.464705476084","longitude":"26.0387614262581"},{"id":"11967","name":"Bulevardul Constructorilor","latitude":"44.4627988574243","longitude":"26.0408750069618"},{"id":"11968","name":"Rusetu","latitude":"44.4596133636363","longitude":"26.0401669037819"},{"id":"11969","name":"Complex Comercial","latitude":"44.4581430771135","longitude":"26.0409286511421"},{"id":"11970","name":"Mehadiei","latitude":"44.4562439022258","longitude":"26.0427418244362"},{"id":"11971","name":"Soseaua Crangasi","latitude":"44.45315","longitude":"26.04586"},{"id":"11972","name":"Piata Crangasi","latitude":"44.4524078400504","longitude":"26.0476229084015"},{"id":"11973","name":"Bulevardul Ceahlau","latitude":"44.4536408601635","longitude":"26.052751292038"},{"id":"11974","name":"Pasaj Grant","latitude":"44.4534417406647","longitude":"26.057450522232"},{"id":"11975","name":"Spitalul Dr.Panait Sarbu","latitude":"44.4495128209546","longitude":"26.0616347682953"},{"id":"11742","name":"Primaria Sector 6","latitude":"44.4466314451972","longitude":"26.0657691252708"},{"id":"11039","name":"Witing","latitude":"44.442027229471","longitude":"26.0715997112274"},{"id":"11239","name":"Mircea Vulcanescu","latitude":"44.4400800372208","longitude":"26.0730180633545"},{"id":"11240","name":"Casa Studentilor","latitude":"44.43731","longitude":"26.07835"},{"id":"11241","name":"Vasile Parvan","latitude":"44.4367699679","longitude":"26.0826954735"}]},{"id":"1217","name":"Vasile Parvan - Giulesti Sarbi","geometry":"{`fnGkhe~C?AJiADQ\\O|CkA|EgBZI@|@??NfX?nACh@Kj@W~@aDlL??iBpGIVMUmGiKi@_AQYIZe@`AkBjE??eGhNu@|Ak@bAeAr@wEnC_CnA}@j@c@\\[`@aBbCeGhJuApBqApBwAvB??cA|Au@bAsBdDi@~@o@`BYf@Ob@EVJb@n@fB|@pBd@|ChAfIdCdQ??Lx@sBt@cA^yKzDiDlAwFpBUd@mArFaAvEaAJgBTiD^O@TfD?@??PnCD|AR`CBv@V`EXpENjCuBrBiGfGoFjFqAfAqFfFe@b@??qAlAw@j@i@VoA\\aADs@A_HaAkEq@kAUKG{AaBMKGEu@bB_CpFiFnLaBtDaAtEeDxO??eHx\\yGl[OdAm@xJE^IDGLANBJFLFBH@JG\\r@bFnL??nLxWb@bALj@?z@G^M^g@nAQx@KlEGtAS`B]dAa@|@i@x@oAv@]L??s@D[?aAJ{A`@mDtAs@\\QLMVCxAGxB?x@DpBbA~FRfA??f@`DLhDCz@e@fEGRIJg@n@_C`CsAxAiBqDwCwG??}CmH_BeEAGM@k@D??qAHB`AFbAd@~B\\tB\\lC|A`LZnCfEY??xAIn@MfCmC","color":"2F91C9","direction":"1","duration":"00:30","stops":[{"id":"11241","name":"Vasile Parvan","latitude":"44.4367699679","longitude":"26.0826954735"},{"id":"11021","name":"Facultatea de Drept","latitude":"44.43447","longitude":"26.08027"},{"id":"11244","name":"Mircea Vulcanescu","latitude":"44.4402872454579","longitude":"26.0730373752594"},{"id":"11981","name":"Witing","latitude":"44.4428483705672","longitude":"26.0712912571907"},{"id":"11659","name":"Primaria Sector 6","latitude":"44.4455093399","longitude":"26.0675876629"},{"id":"11438","name":"Calea Giulesti","latitude":"44.4473100595","longitude":"26.0620317352"},{"id":"11939","name":"Pascal Cristian","latitude":"44.4462683909503","longitude":"26.0576012623787"},{"id":"11940","name":"Tibles","latitude":"44.4499983976683","longitude":"26.0551765454292"},{"id":"11941","name":"Bulevardul Ceahlau","latitude":"44.4537664582668","longitude":"26.0512385261536"},{"id":"11942","name":"Piata Crangasi","latitude":"44.4531461235439","longitude":"26.048266638565"},{"id":"11943","name":"Soseaua Crangasi","latitude":"44.4532839762737","longitude":"26.0459068310738"},{"id":"11944","name":"Mehadia","latitude":"44.4563855766729","longitude":"26.0429134858131"},{"id":"11945","name":"Complex Comercial","latitude":"44.458407271947","longitude":"26.04090719347"},{"id":"11946","name":"Rusetu","latitude":"44.4599694430798","longitude":"26.0405209553718"},{"id":"11947","name":"Bulevardul Constructorilor","latitude":"44.4638057742302","longitude":"26.0408213627815"},{"id":"11948","name":"Godeni","latitude":"44.4650462106067","longitude":"26.0385146630287"},{"id":"11949","name":"Piata Giulesti","latitude":"44.4664320990861","longitude":"26.0351565373421"},{"id":"11950","name":"Copsa Mica","latitude":"44.4676418532927","longitude":"26.0312405121803"},{"id":"11951","name":"Institutul Pasteur","latitude":"44.4687367358016","longitude":"26.0280111325264"},{"id":"11952","name":"Depoul Giulesti","latitude":"44.4694334685232","longitude":"26.0256722462654"},{"id":"11982","name":"Cartier 16 Februarie","latitude":"44.4700268332504","longitude":"26.0206726086616"},{"id":"11983","name":"Poiana lacului","latitude":"44.4676686513726","longitude":"26.0161235821724"},{"id":"11984","name":"Intrarea Caramidei","latitude":"44.4675767722283","longitude":"26.0101368916511"},{"id":"11985","name":"Sculptorilor","latitude":"44.4706699572273","longitude":"26.006145764637"},{"id":"11986","name":"Scoala","latitude":"44.4701340210721","longitude":"26.0031846058845"},{"id":"11987","name":"Giulesti-Sarbi","latitude":"44.4713283863381","longitude":"26.0009100926399"},{"id":"11988","name":"Rasadnitei","latitude":"44.474436683924","longitude":"26.0054376614571"},{"id":"11976","name":"Giulesti-Sarbi","latitude":"44.4711676078205","longitude":"26.0007813466072"}]}]}