{"status":"ok","data":[{"id":"1092","name":"Romprim - Cartier 16 Februarie","geometry":"iv{mGyrq~CWfAAXBXHX@`@eA`E??qBrHs@~ByDfLc@xAe@pBmFdPeHnTuCbJ??gIdWmJrYc@vA{A`EUb@QLMb@Ct@k@vCs@nCiC|IcDjLeGjT{@nCeAvDcCbJ}DxNa@`CiCrO{@bFwAbH_@vAe@`AoAlAuAlAeAv@q@f@uGpDuAt@e@j@o@rAkD~GyBpE??iEnIi@v@kAtBe@l@k@b@uLpGSLcApApJnG~AzAVf@?p@GT_MxPoF|G??eOfRsA|A_GvHaIjKcK|NiJlNQV{CbEaFjH??_LvOeIdK??sBhCs@t@m@`@M^M`@DvD\\`LEAl@fU?LM@mENoFF??iEFcGCuFGiEAcBOkB_@}Ao@yA}@kAcA}@eAqAgB{EaHkCuD??cDsEiBqA}MwBqEcAoAm@mAs@wAiAmAsAkBwCg@c@UFUHYVUh@c@f@i@ZWDk@R{@Zg@\\mCfE}BtD??_CvD{AbCa@\\s@p@c@R}ClAkClAqAr@y@f@_ErCaE~COL??wAhAUXaHnW}Mp\\uBdF??yBnF}AxDcBpDaBxDcGbNgErJqFlW??cIv_@uDlQeAlFi@`I","color":"901939","direction":"0","duration":"00:45","stops":[{"id":"10658","name":"Romprim","latitude":"44.3838723006","longitude":"26.1459097755"},{"id":"10659","name":"Sos. Vitan-Barzesti","latitude":"44.3858428337","longitude":"26.1400518311"},{"id":"10660","name":"Stadion","latitude":"44.38901","longitude":"26.13254"},{"id":"10661","name":"Lunca Barzesti","latitude":"44.39139","longitude":"26.12692"},{"id":"10662","name":"Piata Sudului","latitude":"44.3938086317","longitude":"26.1212119949"},{"id":"10663","name":"Husi","latitude":"44.39602","longitude":"26.11551"},{"id":"10664","name":"Bd. C-tin Brancoveanu","latitude":"44.3979866004","longitude":"26.1103973282"},{"id":"10665","name":"Opris Ilie","latitude":"44.40007","longitude":"26.10453"},{"id":"10666","name":"Cimitirul Serban Voda","latitude":"44.4013824176","longitude":"26.0998186958"},{"id":"10466","name":"Piata Eroii Revolutiei","latitude":"44.40612","longitude":"26.0947"},{"id":"10467","name":"Stefan Hepites","latitude":"44.40832","longitude":"26.0911"},{"id":"10468","name":"Dr. Constantin Istrati","latitude":"44.41099","longitude":"26.08919"},{"id":"10469","name":"Spatarul Preda","latitude":"44.4113","longitude":"26.08374"},{"id":"10470","name":"Calea Rahovei","latitude":"44.4162","longitude":"26.07782"},{"id":"10471","name":"Inox","latitude":"44.419","longitude":"26.07447"},{"id":"10472","name":"Calea 13 Septembrie","latitude":"44.42299","longitude":"26.06913"},{"id":"10473","name":"APRODEX","latitude":"44.42574","longitude":"26.06558"},{"id":"10474","name":"Piata Danny Huwe","latitude":"44.42885","longitude":"26.06183"},{"id":"10475","name":"Bd. Vasile Milea","latitude":"44.4287337857","longitude":"26.0549077881"},{"id":"10476","name":"Bd. Iuliu Maniu","latitude":"44.4352","longitude":"26.05443"},{"id":"10477","name":"Pod Grozavesti","latitude":"44.44274","longitude":"26.06051"},{"id":"10668","name":"Calea Plevnei","latitude":"44.44744","longitude":"26.06342"},{"id":"10669","name":"Spitalul Panait Sarbu","latitude":"44.449883514","longitude":"26.0614416492"},{"id":"10670","name":"Pasaj Grant","latitude":"44.4541340609","longitude":"26.0572574032"},{"id":"10671","name":"Cimitirul Calvin","latitude":"44.4577104076","longitude":"26.0531911743"},{"id":"10672","name":"George Valsan","latitude":"44.4604288972","longitude":"26.0472903145"},{"id":"10673","name":"Bd. Constructorilor","latitude":"44.4630783456","longitude":"26.0422477615"},{"id":"10674","name":"Goldeni","latitude":"44.4648165022","longitude":"26.0389647377"},{"id":"10675","name":"Piata Giulesti","latitude":"44.4663249045","longitude":"26.035606612"},{"id":"10676","name":"Copsa Mica","latitude":"44.4674887212391","longitude":"26.0317973387718"},{"id":"10677","name":"Institutul Pasteur","latitude":"44.4687443923","longitude":"26.027753104"},{"id":"10678","name":"Depoul Giulesti","latitude":"44.469464094","longitude":"26.0254356754"},{"id":"10679","name":"Cart. 16 Februarie","latitude":"44.4702603493","longitude":"26.0220346344"}]},{"id":"1091","name":"Cartier 16 Februarie - Romprim","geometry":"eqlnGqly}CAAf@mHHk@dAeF`CeL??zKuh@bCgLx@wDPk@zD_JbCuFhCuF^y@??dEmJhHmQbL}X^_A~AqFLe@jEcP??FKXYpEqDrEwCt@g@dCwAzDoB|Ao@??f@UpAiAd@k@lDwF`H{KPQZSnCmAj@m@d@kARMRGPB|@`A`@p@h@p@nAtAz@v@`At@dAf@dA\\`JxBAApCj@xAV^Pf@Lz@Zh@h@|DjFx@jA??pJbNjBnB|@p@tAr@bBj@r@NrANrALdDDvCEfL@lBC??bGIh@D|@AlBQRGRM[cJs@wWCaCFi@Fi@BOFOfAcB^c@?AxKiNzI}LdHeK`DkER[`JaNbK}NhPgTrCiDlUuY~LyPTa@B[Aa@IWOUsBkBaBgA??qDcCIQCWDYtEsCfDcBhBkAv@}@bDwFzCgGzEwJhAmBfAiAlCqAjBcAJGn@u@jBmBh@e@bAw@lAw@r@q@Ta@`@{@VmALy@|@oEf@_DvAkI??nBkLLq@|@iDbB_GbDcL`CqI`DoLzAgFfA_EjG{TPc@r@iBDMX]Na@@a@Fi@XoAvAqEbF_PdAaD??lCaInEiNr@_CrCmI|@{CtDkLlCeIfAsDb@kAjAyDt@mBb@mB|BmHbCaJvAsFJ]@]E]CMAMBYz@wC","color":"901939","direction":"1","duration":"00:45","stops":[{"id":"10680","name":"Cart. 16 Februarie","latitude":"44.4700295129","longitude":"26.0220957888"},{"id":"10681","name":"Depou Giulesti","latitude":"44.4693327873","longitude":"26.0254753721"},{"id":"10682","name":"Institutul Pasteur","latitude":"44.4685671452","longitude":"26.0279215467"},{"id":"10683","name":"Copsa Mica","latitude":"44.467541169","longitude":"26.0312367571"},{"id":"10684","name":"Piata Giulesti","latitude":"44.4661399933","longitude":"26.0356570375"},{"id":"10685","name":"Godeni","latitude":"44.4645779873","longitude":"26.0390902651"},{"id":"10686","name":"Bd. Constructorilor","latitude":"44.4630159394","longitude":"26.0419870508"},{"id":"10687","name":"George Valsan","latitude":"44.4604660363","longitude":"26.0469223154"},{"id":"10688","name":"Cimitirul Calvin","latitude":"44.4577035155219","longitude":"26.0529277813911"},{"id":"10689","name":"Pasaj Grant","latitude":"44.4543396877","longitude":"26.0570074213"},{"id":"10690","name":"Spitalul Panait Sarbu","latitude":"44.450020608491","longitude":"26.0610296619415"},{"id":"10691","name":"Calea Plevnei","latitude":"44.44733","longitude":"26.06293"},{"id":"10542","name":"Pod Grozavesti","latitude":"44.44249","longitude":"26.06034"},{"id":"10543","name":"Bd. Iuliu Maniu","latitude":"44.43475","longitude":"26.05436"},{"id":"10544","name":"Bd.Timisoara","latitude":"44.42901","longitude":"26.05445"},{"id":"10545","name":"Piata Danny Huwe","latitude":"44.42854","longitude":"26.0621"},{"id":"10546","name":"APRODEX","latitude":"44.42539","longitude":"26.06595"},{"id":"10547","name":"Calea 13 Septembrie","latitude":"44.42251","longitude":"26.06964"},{"id":"10548","name":"Inox","latitude":"44.41869","longitude":"26.07472"},{"id":"10549","name":"Calea Rahovei","latitude":"44.4151","longitude":"26.07912"},{"id":"10550","name":"Spatarul Preda","latitude":"44.41154","longitude":"26.08339"},{"id":"10551","name":"Sos.Viilor","latitude":"44.41095","longitude":"26.08841"},{"id":"10552","name":"Stefan Hepites","latitude":"44.4077","longitude":"26.09194"},{"id":"10553","name":"Piata Eroii Revolutiei","latitude":"44.40568","longitude":"26.09535"},{"id":"10511","name":"Cimitirul Serban Voda","latitude":"44.40172","longitude":"26.09883"},{"id":"10667","name":"Opris Ilie","latitude":"44.39983","longitude":"26.1052"},{"id":"10692","name":"Bd. C-tin Brancoveanu","latitude":"44.39836","longitude":"26.10922"},{"id":"10693","name":"Husi","latitude":"44.39613","longitude":"26.11502"},{"id":"10694","name":"Piata Sudului","latitude":"44.39413","longitude":"26.12025"},{"id":"14259","name":"Soseaua Berceni","latitude":"44.39283","longitude":"26.12336"},{"id":"10695","name":"Lunca Barzesti","latitude":"44.39106","longitude":"26.12756"},{"id":"10696","name":"Stadion ","latitude":"44.3891002017","longitude":"26.1321414602"},{"id":"10697","name":"Sos. Vitan-Barzesti","latitude":"44.386194379","longitude":"26.1389971865"},{"id":"10698","name":"Romprim","latitude":"44.38352","longitude":"26.14631"}]}]}