{"status":"ok","data":[{"id":"1170","name":"Republica - Isovolta","geometry":"skenGkly~CL_@k@i@N_AHk@??fOkhAvHsi@pLk{@p@}E~AsKfAoIj@mEfCv@h@P??pHhCtA`@`b@dJlANh@?","color":"2F91C9","direction":"0","duration":"00:15","stops":[{"id":"11353","name":"Republica","latitude":"44.4334","longitude":"26.18579"},{"id":"11354","name":"Grup Scolar Ind. Republica","latitude":"44.4324109005","longitude":"26.1910577906"},{"id":"11355","name":"Meiului","latitude":"44.4319359034","longitude":"26.1931391848"},{"id":"11356","name":"Complex Comerical","latitude":"44.4309475905","longitude":"26.1975809229"},{"id":"11357","name":"Scoala Generala 65","latitude":"44.4299132918","longitude":"26.2022694243"},{"id":"11358","name":"S.C. Bucur","latitude":"44.429308027","longitude":"26.2049194468"},{"id":"11359","name":"Soldat Radu Tina","latitude":"44.4275764753","longitude":"26.2125905646"},{"id":"11360","name":"Catanoaia","latitude":"44.4268485954","longitude":"26.2158199442"},{"id":"11361","name":"Soseaua Garii Catelu","latitude":"44.4254004704","longitude":"26.2205942763"},{"id":"11362","name":"I.C.M.E. Poarta 1","latitude":"44.4230787984","longitude":"26.2195750369"},{"id":"11363","name":"Fabrica de Oxigen","latitude":"44.4207493715","longitude":"26.2188240183"},{"id":"11364","name":"Isovolta","latitude":"44.4168496723359","longitude":"26.2178476942062"}]},{"id":"1169","name":"Isovolta - Republica","geometry":"acbnGqs__DA?q@?mAOab@eJuAa@{I{CgCw@k@lE_BpL??sBnN_A~GkGld@{OdiAeDrVcExZYdAcAtDW~@|@x@","color":"2F91C9","direction":"1","duration":"00:15","stops":[{"id":"11365","name":"Isovolta","latitude":"44.4166427641529","longitude":"26.2174829137802"},{"id":"11366","name":"Fabrica de Oxigen","latitude":"44.4213164116","longitude":"26.2191136969"},{"id":"11367","name":"I.C.M.E. Poarta 1","latitude":"44.4235385428","longitude":"26.2198754443"},{"id":"11368","name":"Soseaua Garii Catelu","latitude":"44.4256157758595","longitude":"26.2207873952866"},{"id":"11369","name":"Catanoaia","latitude":"44.427247015","longitude":"26.2145753993"},{"id":"11370","name":"Soldat Radu Tina","latitude":"44.4279825518","longitude":"26.2114211215"},{"id":"11371","name":"S.C. Bucur","latitude":"44.4295378751","longitude":"26.2044581069"},{"id":"11372","name":"Scoala Generala 65","latitude":"44.4301358590185","longitude":"26.2019261014938"},{"id":"11373","name":"Complex Comercial","latitude":"44.4312157391","longitude":"26.1970873965"},{"id":"11374","name":"Meiului","latitude":"44.4322040474","longitude":"26.1924954546"},{"id":"11375","name":"Grup Scolar Ind. Republica","latitude":"44.4326483976","longitude":"26.1905642642"},{"id":"11353","name":"Republica","latitude":"44.4334","longitude":"26.18579"}]}]}