{"status":"ok","data":[{"id":"1909","name":"Ghencea - Varteju","geometry":"qzanGsf~}CAAS{Fq@oMoFuWgEiSwA_Hv@|@`Ar@fAp@rPrG~GjCzQjH`VlJ??lO~FhMzElCpAb@^Zn@\\n@DPVZTNz@J^@pAHrAJhG\\pDTjHh@`FZhQlAlJv@`ADl@DfEVbGd@dHf@dGd@tF`@pEZr@A|B_@`JsA`BWxAOd@ApA^tSfKl@Z??|MxGzUvLvNdHdB~@fGvCrAr@l@RtHtBjJbCzCx@hAd@hAp@r@d@x@v@dBxB`@^l@bAz@nAhIbEjHrDnHnDp@XHL`@~@j@r@lAp@Al@Dj@Ph@VVlBr@~Ap@tAp@JRBT@XGl@y@vC_BxFyApEe@hBsAhGoBlHaEdNgAdEQz@??MvAObCa@|Fa@tCe@~BaDtHk@xBAp@Fd@f@bApDfIxBjERp@@\\Id@m@lA}AbDq@bB_DxG_B|DoBtFs@xCY`Cn@ZhCdA|FxAVLF\\A\\wHph@GfAAt@TpB??BTA`@CPs@rB{CxI","color":"2F91C9","direction":"0","duration":"00:40","stops":[{"id":"11624","name":"Ghencea","latitude":"44.4152970768164","longitude":"26.0467104208946"},{"id":"11626","name":"Cimitirul Ghencea","latitude":"44.41596","longitude":"26.05144"},{"id":"11273","name":"Calea 13 Septembrie","latitude":"44.4178604466","longitude":"26.0583946598"},{"id":"11274","name":"Piata 13 Septembrie","latitude":"44.4154771677","longitude":"26.0570964706"},{"id":"11275","name":"Trambitei","latitude":"44.4110552002","longitude":"26.0549077881"},{"id":"11276","name":"Manea Serban","latitude":"44.4085720076","longitude":"26.0536632431"},{"id":"11277","name":"Tacerii","latitude":"44.4029001232","longitude":"26.0509166611"},{"id":"12181","name":"Soseaua Magurele","latitude":"44.3992514312156","longitude":"26.048792351532"},{"id":"14114","name":"Venus","latitude":"44.39373","longitude":"26.04802"},{"id":"14115","name":"Soseaua Vartejului","latitude":"44.38893","longitude":"26.0474"},{"id":"14116","name":"Slatina","latitude":"44.38412","longitude":"26.04674"},{"id":"14117","name":"Curtea de Arges","latitude":"44.38155","longitude":"26.04638"},{"id":"14118","name":"Pecinisca","latitude":"44.3782","longitude":"26.04697"},{"id":"15170","name":"I.A.I. Magurele","latitude":"44.37606","longitude":"26.04642"},{"id":"15172","name":"Stenyon","latitude":"44.3746","longitude":"26.04549"},{"id":"15168","name":"Cimitir Magurele","latitude":"44.37149","longitude":"26.04376"},{"id":"15174","name":"Facultativa","latitude":"44.36892","longitude":"26.04215"},{"id":"15167","name":"Rocon","latitude":"44.36537","longitude":"26.04011"},{"id":"15177","name":"Pasaj C.F.R. Magurele","latitude":"44.36186","longitude":"26.03811"},{"id":"15179","name":"Atomistilor 94","latitude":"44.35455","longitude":"26.03369"},{"id":"15180","name":"Facultatea de Fizica","latitude":"44.35042","longitude":"26.03085"},{"id":"15182","name":"A.C.R.","latitude":"44.34836","longitude":"26.02911"},{"id":"15248","name":"Statie desfiintata","latitude":"44.35193","longitude":"26.01912"},{"id":"15199","name":"Unirii","latitude":"44.35208","longitude":"26.00832"},{"id":"15205","name":"Magazin","latitude":"44.35399","longitude":"26.00487"},{"id":"15201","name":"Scoala Generala","latitude":"44.35296","longitude":"25.99997"},{"id":"15202","name":"Facultativa","latitude":"44.35384","longitude":"25.99628"},{"id":"15204","name":"Sat Varteju","latitude":"44.3553","longitude":"25.9898"}]},{"id":"1910","name":"Varteju - Ghencea","geometry":"mdvmGkbs}CAAlDeKr@sBBQ@a@QuAGmAD}@jC_RpDcWA]EOIIqCo@yBm@wAk@aBu@XaCVoAnA}DzC_I~CyGp@cB`BgDh@iAHe@Ac@Sk@yBkEyEkKGm@@i@Nu@ZcAfAkCp@}Af@kAToAp@eEn@sJ??L_Bh@gCjDsLhDmL`B{Hd@iBxAqEbCsIT}@Fm@Eo@KSuAq@yD_Bc@SQWKu@AY@e@kAo@KKa@k@k@kAqFiCcN{GaG{Co@_Ay@sAeAkAaAmAy@w@}BwAiAe@_AW_Dy@qEmAgI{BgAYi@Q_Ag@{Au@qDeBcAe@o@a@_NwGqFoC?Act@q^qA_@e@@yANaBVaJrA}B^s@@qE[uFa@eGe@eHg@cGe@gEWm@EaAEmJw@{DWuBOwGe@aF[kHi@qDUiG]sAKqAI[_@e@q@[cAoAi@oAc@q@M_Ac@o@YqHqCoIaD}P{GwRyHqPsGiEaB??qOcGgAq@aAs@w@}@a@Mn@tCtFvWvExTd@tCn@lN^lJ","color":"2F91C9","direction":"1","duration":"00:40","stops":[{"id":"15204","name":"Sat Varteju","latitude":"44.3553","longitude":"25.9898"},{"id":"15203","name":"Facultativa","latitude":"44.35361","longitude":"25.99695"},{"id":"15200","name":"Scoala Generala","latitude":"44.35311","longitude":"26.00091"},{"id":"15206","name":"Magazin","latitude":"44.35384","longitude":"26.00504"},{"id":"15198","name":"Unirii","latitude":"44.35183","longitude":"26.00866"},{"id":"15249","name":"Statie desfiintata","latitude":"44.35158","longitude":"26.01947"},{"id":"15183","name":"A.C.R.","latitude":"44.34805","longitude":"26.02909"},{"id":"15181","name":"Facultatea de Fizica","latitude":"44.35094","longitude":"26.03172"},{"id":"15178","name":"Atomistilor 45","latitude":"44.35465","longitude":"26.0339"},{"id":"15176","name":"Pasaj C.F.R. Magurele","latitude":"44.36201","longitude":"26.0384"},{"id":"15166","name":"Rocon","latitude":"44.36549","longitude":"26.04035"},{"id":"15175","name":"Facultativa","latitude":"44.36915","longitude":"26.04254"},{"id":"15169","name":"Cimitir Magurele","latitude":"44.37163","longitude":"26.04399"},{"id":"15173","name":"Stenyon","latitude":"44.37484","longitude":"26.04588"},{"id":"15171","name":"I.A.I. Magurele","latitude":"44.37614","longitude":"26.04664"},{"id":"15197","name":"Pecinisca","latitude":"44.3784","longitude":"26.04708"},{"id":"14119","name":"Curtea de Arges","latitude":"44.38173","longitude":"26.04652"},{"id":"14120","name":"Slatina","latitude":"44.38483","longitude":"26.04692"},{"id":"14121","name":"Soseaua Vartejului","latitude":"44.38926","longitude":"26.04758"},{"id":"14122","name":"Venus","latitude":"44.39416","longitude":"26.04822"},{"id":"14123","name":"Soseaua Alexandriei","latitude":"44.39923","longitude":"26.04894"},{"id":"11263","name":"Tacerii","latitude":"44.4022179271","longitude":"26.0507557285"},{"id":"11264","name":"Manea Serban","latitude":"44.4089169018","longitude":"26.0540065659"},{"id":"11265","name":"Trambitei","latitude":"44.4114154076","longitude":"26.0552511108"},{"id":"11266","name":"Piata 13 Septembrie","latitude":"44.4156994068","longitude":"26.0573217762"},{"id":"11267","name":"Calea 13 Septembrie","latitude":"44.4179600671","longitude":"26.058641423"},{"id":"11605","name":"Petre Ispirescu","latitude":"44.4182167806","longitude":"26.05811571"},{"id":"11606","name":"Cimitirul Ghencea","latitude":"44.41603","longitude":"26.05111"},{"id":"11715","name":"Ghencea","latitude":"44.4149100710411","longitude":"26.0458848369598"}]}]}