{"status":"ok","data":[{"id":"1108","name":"Depou Alexandria - Piata Unirii","geometry":"iu~mGsh~}CC@eB}F[}BOaAUw@[aAk@kAuBqH??qGiT}E}PuH{VoAoDeD}Fc@w@yAgCiDaFkCgE_BgCmJqN}D}FwAcCkD{F[o@eBcEsCoGs@kBoBiEgBqEcAgC??cByDyAqCy@_BwA_C[w@OIMy@oAoIOg@mD{ImGuNiA{Bo@iBgBgEoBoF??}@aCgBgEqBwEuOk^E[@YFa@F_@?YGQGKKEQ@KBIJCRAPBPHVJT","color":"901939","direction":"0","duration":"00:30","stops":[{"id":"10861","name":"Depoul Alexandria","latitude":"44.39915","longitude":"26.04692"},{"id":"10862","name":"Antiaeriana","latitude":"44.40044","longitude":"26.05047"},{"id":"10863","name":"Margeanului","latitude":"44.4033600262","longitude":"26.0577402008"},{"id":"10864","name":"Piata Rahova","latitude":"44.40674","longitude":"26.06478"},{"id":"10865","name":"Petre Ispirescu","latitude":"44.41048","longitude":"26.07003"},{"id":"10642","name":"Calea Ferentari","latitude":"44.41343","longitude":"26.07433"},{"id":"10853","name":"Sos. Progresului","latitude":"44.41604","longitude":"26.07932"},{"id":"10807","name":"Piata Chirigiu","latitude":"44.41744","longitude":"26.08168"},{"id":"10808","name":"Piata Regina Maria","latitude":"44.4218834461","longitude":"26.0913429153"},{"id":"10809","name":"11 Iunie","latitude":"44.42379","longitude":"26.09501"},{"id":"10563","name":"Piata Unirii","latitude":"44.42654","longitude":"26.10014"}]},{"id":"1107","name":"Piata Unirii - Depou Alexandria","geometry":"w`dnGuth~CTb@jBhEf@jA??rNn\\hBjElDnJfBfEn@hBhAzBjBdE??xHvQZ`ATz@pAfJ@b@Hd@LTfCjEpBdEpJdU??zF|M~@lBfCfE`A~Ap@|@pH`LnBtCtA`CfChEj@~@fJtN??nEfHh@nAPf@fApDnGfTlKv]`AfD|ChKhAvDbA~DjB|H","color":"901939","direction":"1","duration":"00:30","stops":[{"id":"10563","name":"Piata Unirii","latitude":"44.42654","longitude":"26.10014"},{"id":"10564","name":"11 Iunie","latitude":"44.42424","longitude":"26.09571"},{"id":"10851","name":"Piata Regina Maria","latitude":"44.4218573933","longitude":"26.0910285604"},{"id":"10852","name":"Piata Chirigiu","latitude":"44.41714","longitude":"26.08112"},{"id":"10624","name":"Sos. Progresului","latitude":"44.41511","longitude":"26.07741"},{"id":"10625","name":"Calea Ferentari","latitude":"44.41318","longitude":"26.07372"},{"id":"10866","name":"Petre Ispirescu","latitude":"44.41018","longitude":"26.06948"},{"id":"10867","name":"Piata Rahova","latitude":"44.40575","longitude":"26.06323"},{"id":"10868","name":"Margeanului","latitude":"44.40316","longitude":"26.05714"},{"id":"10869","name":"Antiaeriana","latitude":"44.40036","longitude":"26.05012"},{"id":"10870","name":"Depoul Alexandriei","latitude":"44.39918","longitude":"26.04671"}]}]}