{"status":"ok","data":[{"id":"1618","name":"Valea Oltului - Universitate","geometry":"qhanGg_x}CWm@oCb@??yGdAaEt@KmCYwIImC??Q{EE{@Km@_@wAeA}B}@sBa@_A]e@KIMCUFkBrBi@p@WHi@PeATkANe@Dy@AuAMk@Ow@Ug@gAq@_@UQaA}@}@eA??mAoBGO{@e@Y{@YeA]{AWsBMeCAeBDuBf@eHDa@l@sAl@qHRsCPwCD_BJyE??DsKEwEAcAGuCOsCKeBQ}BWiDe@sEsCmTu@kGmA}I{CkT??UmBq@_HkAqO_AsNOwAa@oA}@yAcDcEcAwA[]iA}@eBeAS[Ka@Ge@SU_@UYUKMYWc@q@Ke@C_@LcAf@gAt@qAZ_@xAkCtB{DsEeGi@e@iBsA}AmA??kA_A[I{AUQQ_EuGqBmDaHgL{QoZiCmEaFeIwC}EGYCq@BM?OGgGO{H?eAZwJF_F??LqCN_CAu@KcDQaFM_EAcA?y@E{@u@iEaAkFE_@?WbAuAl@q@`@u@DK@QMs@wAwGKcA??]sDrHwCdDyAfBq@|CoAdCcA","color":"2F91C9","direction":"0","duration":"00:35","stops":[{"id":"14010","name":"Valea Oltului","latitude":"44.41255","longitude":"26.01472"},{"id":"11093","name":"Valea Argesului","latitude":"44.4157618635921","longitude":"26.0154889715194"},{"id":"12161","name":"Drumul Taberei 85","latitude":"44.4176688683235","longitude":"26.0209875"},{"id":"12162","name":"Piata Valea Ialomitei","latitude":"44.421247447529","longitude":"26.0209231269836"},{"id":"12163","name":"Romancierilor","latitude":"44.4230098364453","longitude":"26.0255257976532"},{"id":"12164","name":"Poiana Muntelui","latitude":"44.4223125497911","longitude":"26.0303215873718"},{"id":"11419","name":"Piata Drumul Taberei","latitude":"44.4221516363","longitude":"26.0360035789"},{"id":"11420","name":"Drumul Taberei 35","latitude":"44.4229945115","longitude":"26.0417649639"},{"id":"11100","name":"Favorit","latitude":"44.4242208733","longitude":"26.0475799931"},{"id":"11101","name":"Orizont","latitude":"44.425377484","longitude":"26.0530087841"},{"id":"11270","name":"Lt. Nicolae Gaina","latitude":"44.4259368171","longitude":"26.0571817649"},{"id":"11716","name":"Piata Danny Huwe","latitude":"44.4282277286","longitude":"26.0607013596"},{"id":"11632","name":"Profesor Dr. Reiner","latitude":"44.4288092534","longitude":"26.0665684235"},{"id":"11633","name":"Pod Eroilor","latitude":"44.43527","longitude":"26.07419"},{"id":"11634","name":"Berzei","latitude":"44.4393821881673","longitude":"26.080172051239"},{"id":"11635","name":"Cismigiu","latitude":"44.4398188235676","longitude":"26.0899352920532"},{"id":"11837","name":"Nicolae Balcescu","latitude":"44.44051","longitude":"26.09903"},{"id":"11595","name":"Piata 21 Decembrie 1989","latitude":"44.43642","longitude":"26.10177"}]},{"id":"1619","name":"Universitate - Valea Oltului","geometry":"o~enGm_i~CCGtAi@x@MR@PFP~@pBjR??RpCDbCFlOB`F@|IH`J??BvHAt@Gb@Ad@Fh@Jl@@rBDtNH`NFrMCh@Kj@cH~VUl@lAjB`AtAxA`C??`HfL`BpCx@xAzEhINXFXB`AJvA`AnDfAtDhAvBPV?ApAfBjB`Cu@pAg@fAYZi@dAUh@IZs@nAgBhDgBnD@^JVNFh@WlB_An@UlB_B`@QVSNIPGHALFJ@ZAZFbCtAdAz@bD~D??xAjBp@dARb@RfANrBx@rMbAbO^lEn@hAhApI`BfLk@DFZ\\pCd@tD??pBvOvAbLx@~Hr@pJTvFHpF?r@`@A?l@G~JIjDg@dBOhCUvC??cBbTGxAApBH|CZnCb@tBh@dB^`Af@`Ah@|@`BlBx@p@n@`@XRn@VbAXlATz@B??jACjAOdAUh@QlAk@p@c@x@s@TMXBPH`@~@|@rBdA|B^vAJl@Dz@T~GRtFFxB??JhCBt@`Eu@pJyAj@M","color":"2F91C9","direction":"1","duration":"00:35","stops":[{"id":"11595","name":"Piata 21 Decembrie 1989","latitude":"44.43642","longitude":"26.10177"},{"id":"11018","name":"Universitate","latitude":"44.43525","longitude":"26.10059"},{"id":"11019","name":"Gradina Cismigiu","latitude":"44.4347092191","longitude":"26.0937890899"},{"id":"11020","name":"Piata Mihail Kogalniceanu","latitude":"44.43461","longitude":"26.0869"},{"id":"11021","name":"Facultatea de Drept","latitude":"44.43447","longitude":"26.08027"},{"id":"11596","name":"Spitalul Universitar","latitude":"44.43494","longitude":"26.07339"},{"id":"11597","name":"Carol Davila","latitude":"44.4331429247","longitude":"26.0707097543"},{"id":"11712","name":"Soseaua Panduri","latitude":"44.42963","longitude":"26.06409"},{"id":"11713","name":"Drumul Sarii","latitude":"44.42822","longitude":"26.06037"},{"id":"11269","name":"Lt. Nicolae Gaina","latitude":"44.4261367966","longitude":"26.0569569958"},{"id":"11123","name":"Orizont","latitude":"44.4253315111","longitude":"26.0511950744"},{"id":"11441","name":"Favorit","latitude":"44.4242664639","longitude":"26.0461745155"},{"id":"11442","name":"Drumul Taberei 34","latitude":"44.4231864555","longitude":"26.0407457245"},{"id":"14015","name":"Piata Drumul Taberei","latitude":"44.42219","longitude":"26.03347"},{"id":"14016","name":"Poiana Muntelui","latitude":"44.42259","longitude":"26.02991"},{"id":"14017","name":"Romancierilor","latitude":"44.42313","longitude":"26.02457"},{"id":"14018","name":"Piata Valea Ialomitei","latitude":"44.42036","longitude":"26.02007"},{"id":"11130","name":"Posta","latitude":"44.416964237846","longitude":"26.020489145565"},{"id":"11989","name":"Valea Argesului","latitude":"44.4158488430592","longitude":"26.0160162938118"},{"id":"14010","name":"Valea Oltului","latitude":"44.41255","longitude":"26.01472"}]}]}