{"status":"ok","data":[{"id":"1140","name":"Basarabia - Vasile Parvan","geometry":"kvenGqcv~C?EpUbH~DlA`@NLHN`@VrB\\zC??`BxO^lD^~Df@nHZ`HDjC@|D?hBRjBLd@Tb@d@z@vBjD??zBrDx@lB\\`A`@`BXdBRvB`AjLfE|g@XdD??tA`Q?VERS\\Un@MXg@r@k@l@KRqBdBaA~@_@`@c@f@u@rAuAzBcBnC??eCbEc@f@eAlAi@t@I^I~@M^OXyAlBy@z@eB^gGpAQDW\\q@j@qCjCo@bA??uD`GML[RoDdCMBK@JdAVjBw@AUH_At@kEfD{Ax@iE|BmBdAYRk@PbAfJH`Bb@tD??pAxL?PQzA@z@F`@JX`@b@HRHl@n@lGj@rE`AfJfBjPVhC??TzBDrBHjAd@fBpArLHz@HpA?~@D^Tl@Px@|B|SF~@JvDJpT?tGDtG??D|F@tGIVQTGNEb@@^kAxByAjF}AtFMZYt@Gb@AHBFNNRN","color":"2F91C9","direction":"0","duration":"00:35","stops":[{"id":"11159","name":"Bulevardul Basarabia","latitude":"44.43512","longitude":"26.169"},{"id":"11160","name":"Liceul Nichita Stanescu","latitude":"44.43289","longitude":"26.16809"},{"id":"11161","name":"Constantin Brancusi","latitude":"44.4302350755","longitude":"26.1666486156"},{"id":"11162","name":"Bulevardul Nicolae Grigorescu","latitude":"44.42923","longitude":"26.16119"},{"id":"11163","name":"I.O.R.","latitude":"44.4288330046","longitude":"26.1559626949"},{"id":"11164","name":"Soseaua Campia Libertatii","latitude":"44.42624","longitude":"26.15059"},{"id":"11165","name":"Ion Tuculescu","latitude":"44.4253698218","longitude":"26.1446008575"},{"id":"11166","name":"Soseaua Mihai Bravu","latitude":"44.4244043848","longitude":"26.1381528271"},{"id":"11167","name":"Amazoanei","latitude":"44.4259904515","longitude":"26.1360821617"},{"id":"11168","name":"Bulevardul Decebal","latitude":"44.4287027558","longitude":"26.1323914421"},{"id":"11169","name":"Calea Calarasilor","latitude":"44.4315911449","longitude":"26.129848708"},{"id":"11170","name":"Biserica Delea Veche","latitude":"44.4341193259","longitude":"26.1271450413"},{"id":"11171","name":"Tepes Voda","latitude":"44.4353297496","longitude":"26.1257181061"},{"id":"11172","name":"Matei Voievod","latitude":"44.4386850968","longitude":"26.123078276"},{"id":"11173","name":"Traian","latitude":"44.4388540082","longitude":"26.1196777714"},{"id":"11119","name":"Calea Mosilor","latitude":"44.4379496947","longitude":"26.1149999989"},{"id":"11120","name":"Armeneasca","latitude":"44.4370917139","longitude":"26.1105040801"},{"id":"11017","name":"Teatrul National","latitude":"44.4358583445","longitude":"26.1037454498"},{"id":"11018","name":"Universitate","latitude":"44.43525","longitude":"26.10059"},{"id":"11019","name":"Gradina Cismigiu","latitude":"44.4347092191","longitude":"26.0937890899"},{"id":"11144","name":"Piata Mihail Kogalniceanu","latitude":"44.4347628454","longitude":"26.0881886375"},{"id":"11145","name":"Vasile Parvan","latitude":"44.43619","longitude":"26.08388"}]},{"id":"1139","name":"Vasile Parvan - Basarabia","geometry":"w|enGgoe~C??j@X\\FdDqAdA[PCC_IAaD?oCJM??LWFc@@a@EWK_@MW??MMC_HKcPGeSCcFGuEAyAAAoB_SCeA?yAC[k@{ASgASgB??aAkJEmBCm@Kg@a@}As@kGy@kIkBgQ{@sHe@eFJm@Fy@C[Ou@Q_@OQQ_@SeB??{AuN[wBc@iEd@cEbB}@?AnH}DjG}ETIV?n@@vCa@A{GZSZ_@??vEsHdBaBl@i@n@k@V]ZGbIeB^IPQ|AiBr@gA??L_@H_AH_@h@u@hBuBzFkJ\\m@??zAiCbAiApCcC`@a@NGn@i@JM@BPIN@NFLHNDP?NELMN_@?e@Gg@K[Mc@k@wG??}Dof@cDo`@YkBk@yBY{@??eAaCwBmDeCeE}@}A[{@GiA@mCCyDCy@??K}CWwE[oEk@cGy@cI_AyI??]{CWsBOa@MIa@O_EmA_MsD??eIcCSGq@Di@Le@cA??EK","color":"2F91C9","direction":"1","duration":"00:35","stops":[{"id":"11145","name":"Vasile Parvan","latitude":"44.43619","longitude":"26.08388"},{"id":"11013","name":"Piata Mihail Kogalniceanu","latitude":"44.434372521","longitude":"26.0881993664"},{"id":"11014","name":"Gradina Cismigiu","latitude":"44.4346096271","longitude":"26.0942933453"},{"id":"11015","name":"Universitate","latitude":"44.43515","longitude":"26.10123"},{"id":"11016","name":"Piata Rosetti","latitude":"44.435965595","longitude":"26.1052040351"},{"id":"11105","name":"Armeneasca","latitude":"44.436724004","longitude":"26.1095068348"},{"id":"11106","name":"Calea Mosilor","latitude":"44.4377819298","longitude":"26.1150525702"},{"id":"11174","name":"Traian","latitude":"44.438708078","longitude":"26.1198381675"},{"id":"11175","name":"Matei Voievod","latitude":"44.4385318888","longitude":"26.1230358971"},{"id":"11176","name":"Tepes Voda","latitude":"44.4355672348","longitude":"26.1251280201"},{"id":"11177","name":"Biserica Delea Veche","latitude":"44.4338741737","longitude":"26.1273274315"},{"id":"11178","name":"Calea Calarasilor","latitude":"44.43199","longitude":"26.12948"},{"id":"11179","name":"Invingatorilor","latitude":"44.4296987682","longitude":"26.1304817093"},{"id":"11180","name":"Bulevardul Decebal","latitude":"44.4279825517","longitude":"26.1329922569"},{"id":"11181","name":"Soseaua Mihai Bravu","latitude":"44.424802821","longitude":"26.1368868244"},{"id":"11182","name":"Ion Tuculescu","latitude":"44.4252012546","longitude":"26.1447081459"},{"id":"11183","name":"Soseaua Campia Libertatii","latitude":"44.4259061689","longitude":"26.1493108166"},{"id":"11184","name":"I.O.R.","latitude":"44.4285112131","longitude":"26.1553618801"},{"id":"11185","name":"Bulevardul Nicolae Grigorescu","latitude":"44.4293999663","longitude":"26.1630544556"},{"id":"11186","name":"Lucretiu Patrascanu","latitude":"44.43054","longitude":"26.16731"},{"id":"11187","name":"Liceul Nichita Stanescu","latitude":"44.43303","longitude":"26.16833"},{"id":"11188","name":"Bulevardul Basarabia","latitude":"44.43615","longitude":"26.16954"}]}]}