{"status":"ok","data":[{"id":"1162","name":"Depoul Alexandria - Gara de Nord","geometry":"sp~mGi{}}CCEHQAYIQC_@Yk@oCsIkAaEK{@UuAMy@[cAoAi@oAc@q@M_Ac@o@YqEcB??eRiHsQgHaS}H{GkCwOcGuFwBe@WyB}AUUY_@KEUG_BMyD[aF_@yFc@kE[mIm@??wGe@Bv@NpBBlA?f@Iv@A`@FXHd@??Jz@NrCf@fIqDh@yF|@wAN]HUGKEsAHaEH??_KLcGCwEECwCGoRAy@??CoCEcBm@sCqAeGQsBGoBQyAa@kB{@cCoDuJ_B_G??{AwFi@uAs@eAoA}A_AaBgGkJQQYIS]i@mBeBeH_CcKs@oCg@iCc@gB?KCUGi@i@GcBc@??o@Q]?O?u@`A{@|AgBvC??aFrI??MTM\\CJALAXBXFXH?F?RNp@|@","color":"2F91C9","direction":"0","duration":"00:35","stops":[{"id":"11262","name":"Depul Alexandria","latitude":"44.39842","longitude":"26.04435"},{"id":"11263","name":"Tacerii","latitude":"44.4022179271","longitude":"26.0507557285"},{"id":"11264","name":"Manea Serban","latitude":"44.4089169018","longitude":"26.0540065659"},{"id":"11265","name":"Trambitei","latitude":"44.4114154076","longitude":"26.0552511108"},{"id":"11266","name":"Piata 13 Septembrie","latitude":"44.4156994068","longitude":"26.0573217762"},{"id":"11267","name":"Calea 13 Septembrie","latitude":"44.4179600671","longitude":"26.058641423"},{"id":"11268","name":"Nabucului","latitude":"44.4213930381","longitude":"26.0594568146"},{"id":"11269","name":"Lt. Nicolae Gaina","latitude":"44.4261367966","longitude":"26.0569569958"},{"id":"11103","name":"Bulevardul Timisoara","latitude":"44.4281131851","longitude":"26.0547135962"},{"id":"11104","name":"Bulevardul Iuliu Maniu","latitude":"44.4342350067","longitude":"26.0544775618"},{"id":"11008","name":"Piata Leul","latitude":"44.43442","longitude":"26.05825"},{"id":"11048","name":"Carol Davilla","latitude":"44.43746555","longitude":"26.0684690369"},{"id":"11049","name":"Pod Cotroceni","latitude":"44.43883","longitude":"26.07081"},{"id":"11050","name":"Calea Plevnei","latitude":"44.4401397868048","longitude":"26.0725449216842"},{"id":"11051","name":"Bd. Dinicu Golescu","latitude":"44.4422","longitude":"26.07799"},{"id":"11052","name":"Ministerul Transporturilor","latitude":"44.444711981","longitude":"26.0782537354"},{"id":"11038","name":"Gara de Nord","latitude":"44.44575","longitude":"26.07506"}]},{"id":"1161","name":"Gara de Nord - Depoul Alexandria","geometry":"oxgnGoxc~CA@fAvAJVZ^~BlCnDfE`EvENb@HND?NIhCyAnDsB??r@a@`@SFN`EpGnCdErAbBx@hAR^Tn@bDbMV`At@rBpDvJd@vBNhBHrBHh@??RrAzApGJz@?~@HhQBbM@\\vCE|K@??|FG|BEh@D|BIt@K^S\\It@GrDm@tAS~Ce@b@GScD]wFNu@QeD??KyAIk@KyAKyBzF`@??hKt@~Gd@lE^|DZtFb@`@Lv@|@`Ar@fAp@rPrG~GjCzQjHbQ~GdRjH`NfF??xB`A`Ad@RNNNNXJT\\n@DPXn@b@z@x@fAjA`EbBjFj@fB?b@Aj@EHAZJTFDH?l@z@","color":"2F91C9","direction":"1","duration":"00:35","stops":[{"id":"11038","name":"Gara de Nord","latitude":"44.44575","longitude":"26.07506"},{"id":"11039","name":"Witing","latitude":"44.442027229471","longitude":"26.0715997112274"},{"id":"11040","name":"Pod Cotroceni","latitude":"44.4389915117","longitude":"26.0706464541"},{"id":"11024","name":"Gradina Botanica","latitude":"44.4364869065","longitude":"26.0655615223"},{"id":"11025","name":"Piata Leul","latitude":"44.43469","longitude":"26.05812"},{"id":"11121","name":"Bulevardul Iuliu Maniu","latitude":"44.4333850155067","longitude":"26.054199684906"},{"id":"11122","name":"Bulevardul Timisoara","latitude":"44.4294459359","longitude":"26.0542104137"},{"id":"11270","name":"Lt. Nicolae Gaina","latitude":"44.4259368171","longitude":"26.0571817649"},{"id":"11271","name":"Drumul Sarii","latitude":"44.4255613749","longitude":"26.0598950875"},{"id":"11272","name":"Nabucului","latitude":"44.4206731271","longitude":"26.0591773284"},{"id":"11273","name":"Calea 13 Septembrie","latitude":"44.4178604466","longitude":"26.0583946598"},{"id":"11274","name":"Piata 13 Septembrie","latitude":"44.4154771677","longitude":"26.0570964706"},{"id":"11275","name":"Trambitei","latitude":"44.4110552002","longitude":"26.0549077881"},{"id":"11276","name":"Manea Serban","latitude":"44.4085720076","longitude":"26.0536632431"},{"id":"11277","name":"Tacerii","latitude":"44.4029001232","longitude":"26.0509166611"},{"id":"11278","name":"Depoul Alexandria","latitude":"44.39822","longitude":"26.04436"}]}]}