{"status":"ok","data":[{"id":"1090","name":"Depoul Militari - Zetari","geometry":"otdnGeaq}C}Bkl@sA{]}A}b@iAm[CS?U@SFOFIDEFGHC`@MfAUrEiA?Ah@j@vDbD`ItGzD|CzAlA^Pd@Hd@@jCSfCURMHWGsA]cGe@iLKwC??a@_Mo@{Q]oNYwDsCuMoAiGSqAUkEO{Di@iNeBgg@??UqHY_Hg@yNe@wJy@_SSqIi@_]OeO?i@I{EWgGMmI[cMa@cNs@wWCaCFi@Fi@BOFOfAcB`D_E??vGoIzI}LdHeK`DkER[`JaNbK}NhPgT|EdL??nFdM~@lBP\\DIFUFAPK\\[jIoIdCmC??fAiAlCeCl@i@nA}@~CwClB_BjB}AnBsAjCwAdEwBnFwCdAq@nCqC~DcElBqBh@a@j@UdHiA`BWd@EhAKtBGpBSl@GP?\\HdGpEpFzDrEnCdGrD??bFzC~@l@r@f@~@|@`AhAjArA`Az@fHtD@@","color":"901939","direction":"0","duration":"00:40","stops":[{"id":"10608","name":"Depou Militari","latitude":"44.42968","longitude":"25.97928"},{"id":"10609","name":"Inscut","latitude":"44.43005","longitude":"25.98347"},{"id":"10610","name":"S.C. Vest","latitude":"44.43057","longitude":"25.98971"},{"id":"10611","name":"Urbis","latitude":"44.43095","longitude":"25.99444"},{"id":"10612","name":"Cesarom","latitude":"44.43157","longitude":"26.00132"},{"id":"10613","name":"C.F.R. Cotroceni","latitude":"44.42858","longitude":"26.00182"},{"id":"10614","name":"Comautosport","latitude":"44.4237611343","longitude":"26.0006949795"},{"id":"10615","name":"Radox","latitude":"44.42425","longitude":"26.00658"},{"id":"10616","name":"Valea Oltului","latitude":"44.42483","longitude":"26.01291"},{"id":"10617","name":"Frigocom","latitude":"44.4261","longitude":"26.01799"},{"id":"10618","name":"Romancierilor","latitude":"44.42658","longitude":"26.02394"},{"id":"10619","name":"Compasului","latitude":"44.42698","longitude":"26.02893"},{"id":"10620","name":"Brasov","latitude":"44.4274","longitude":"26.03411"},{"id":"10621","name":"Sergent Moise","latitude":"44.42793","longitude":"26.04062"},{"id":"10622","name":"Sibiu","latitude":"44.4282430521","longitude":"26.0481915367"},{"id":"10623","name":"Bd. Vasile Milea","latitude":"44.42857","longitude":"26.05391"},{"id":"10545","name":"Piata Danny Huwe","latitude":"44.42854","longitude":"26.0621"},{"id":"10546","name":"APRODEX","latitude":"44.42539","longitude":"26.06595"},{"id":"10547","name":"Calea 13 Septembrie","latitude":"44.42251","longitude":"26.06964"},{"id":"10548","name":"Inox","latitude":"44.41869","longitude":"26.07472"},{"id":"10624","name":"Sos. Progresului","latitude":"44.41511","longitude":"26.07741"},{"id":"10625","name":"Calea Ferentari","latitude":"44.41318","longitude":"26.07372"},{"id":"10626","name":"Sos. Salaj","latitude":"44.4084876999","longitude":"26.0777387512"},{"id":"10627","name":"Cibinului","latitude":"44.4064259539","longitude":"26.0794768227"},{"id":"10628","name":"Armistitiului","latitude":"44.4031454053","longitude":"26.0814723862"},{"id":"10629","name":"Sulitei","latitude":"44.400876507","longitude":"26.0837898148"},{"id":"10630","name":"Piata Ferentari","latitude":"44.39813","longitude":"26.08482"},{"id":"10631","name":"Vadul Nou","latitude":"44.39363","longitude":"26.08305"},{"id":"10632","name":"Valtoarei","latitude":"44.3899834205778","longitude":"26.0805706274986"},{"id":"10633","name":"Zetari","latitude":"44.38665","longitude":"26.07792"}]},{"id":"1089","name":"Zetari - Depoul Militari","geometry":"ud|mGcjd~Cg@ASCQIA@mFmCiAq@o@q@_BgB??oAwAy@o@gOgJ}H{EgJ}GoBsAGA??UEW?mD\\{BFm@DuAReEr@{Ch@]J]Pu@t@eEhEyA~AaC|BcAr@cCpAyDpB{GpDwA~@kBpAoExD[V??}FbFwCvC}LbMOVIVG\\[o@eBcEsCoGs@kBoBiE}@}B]{@WZeBzB??cMjPcK|NeJzL_@f@uCfEqHhKwEbI@@????AAaEzDoJzL{@nAm@z@Kd@?n@Br@Bp@bAze@d@pT??PjIH`DRbO\\dTh@|WP|FL`Dl@|LRbE^xJ??p@hRXjHb@hN`AxVn@`S\\xCtAdHhChMVxBL|A\\nL\\|JA?`Ble@`@nJEVGDOBsFd@Y@]G[K[UcGcFa@]??iNgLKEMC[Du@PmBd@yA^o@NWJQVGj@Cr@J|AfB|d@dCvq@hCbq@b@vH","color":"901939","direction":"1","duration":"00:40","stops":[{"id":"10634","name":"Zetari","latitude":"44.38618","longitude":"26.07786"},{"id":"10635","name":"Valtoarei","latitude":"44.38973","longitude":"26.0806"},{"id":"10636","name":"Vadul Nou","latitude":"44.3933","longitude":"26.08302"},{"id":"10637","name":"Piata Ferentari","latitude":"44.3985461956","longitude":"26.084819783"},{"id":"10638","name":"Sulitei","latitude":"44.4007538614","longitude":"26.0841224087"},{"id":"10639","name":"Armistitiului","latitude":"44.4030917499","longitude":"26.0817406071"},{"id":"10640","name":"Cibinului","latitude":"44.4062649967","longitude":"26.0797879589"},{"id":"10641","name":"Sos. Salaj","latitude":"44.4081","longitude":"26.07822"},{"id":"10642","name":"Calea Ferentari","latitude":"44.41343","longitude":"26.07433"},{"id":"10470","name":"Calea Rahovei","latitude":"44.4162","longitude":"26.07782"},{"id":"10471","name":"Inox","latitude":"44.419","longitude":"26.07447"},{"id":"10472","name":"Calea 13 Septembrie","latitude":"44.42299","longitude":"26.06913"},{"id":"10473","name":"APRODEX","latitude":"44.42574","longitude":"26.06558"},{"id":"10474","name":"Piata Danny Huwe","latitude":"44.42885","longitude":"26.06183"},{"id":"10475","name":"Bd. Vasile Milea","latitude":"44.4287337857","longitude":"26.0549077881"},{"id":"10643","name":"Sibiu","latitude":"44.42836","longitude":"26.04886"},{"id":"10644","name":"Sergent Moise","latitude":"44.428","longitude":"26.03995"},{"id":"10645","name":"Brasov","latitude":"44.4273","longitude":"26.03216"},{"id":"10646","name":"Compasului","latitude":"44.42708","longitude":"26.02932"},{"id":"10647","name":"Romancierilor","latitude":"44.42658","longitude":"26.02334"},{"id":"10648","name":"Frigocom","latitude":"44.42613","longitude":"26.01739"},{"id":"10649","name":"Valea Oltului","latitude":"44.4247338611","longitude":"26.0122070206"},{"id":"10650","name":"Radox","latitude":"44.42424","longitude":"26.00604"},{"id":"10651","name":"Comautosport","latitude":"44.42374","longitude":"25.99997"},{"id":"10652","name":"C.F.R. Cotroceni","latitude":"44.42816","longitude":"26.00155"},{"id":"10653","name":"Cesarom","latitude":"44.43154","longitude":"26.00063"},{"id":"10654","name":"Urbis","latitude":"44.43096","longitude":"25.99389"},{"id":"10655","name":"S.C. Vest","latitude":"44.43058","longitude":"25.98924"},{"id":"10656","name":"Inscut","latitude":"44.43007","longitude":"25.98308"},{"id":"10657","name":"Depoul Militari","latitude":"44.42955","longitude":"25.97742"}]}]}