{"status":"ok","data":[{"id":"1122","name":"Gara de Nord - Piata Iancului","geometry":"cfhnG}~c~CAB|@bA??Ru@J[n@aCXmAPu@b@eB`AeEt@eE\\sB??h@{C@GBODQ??aB_@??iEcAmBaA@?[QqEkB_Bu@}H_EiB}@@?UKYMSA??UDWNMR]j@??OReAnAg@l@??_FxFwBfCe@j@??_AdAwA`BAh@RZ`AG@Dt@IjD_@??fAM|B]tCy@\\IVKC}XuAkh@L?g@mNGgA@?E}@WkIOsK@kIHsYA??}A?kBDqR?K??@sADwH?{A??@gA@sCDiDJsCLeD?@@o@FqAd@aJDy@HgBR_Bf@gD~CoQxBqE~BcDvC{C`EcDxBq@`Ck@bBg@?ALEz@k@lA{@??fBqAz@s@n@m@dCuC@C??x@kA~AmDpAgCjB_ErCsF","color":"901939","direction":"0","duration":"00:30","stops":[{"id":"15499","name":"Gara de Nord","latitude":"44.44787","longitude":"26.07622"},{"id":"15500","name":"Buzesti","latitude":"44.44591","longitude":"26.0807"},{"id":"15489","name":"Piata Buzesti","latitude":"44.44777","longitude":"26.08237"},{"id":"15490","name":"Piata Victoriei","latitude":"44.4516","longitude":"26.0845"},{"id":"10767","name":"Dr. C-tin Caracas","latitude":"44.4539579183","longitude":"26.0803565872"},{"id":"10481","name":"Pasajul Victoria","latitude":"44.45253","longitude":"26.09194"},{"id":"10482","name":"Roma","latitude":"44.45274","longitude":"26.09464"},{"id":"10483","name":"Calea Dorobantilor","latitude":"44.45296","longitude":"26.0983"},{"id":"10485","name":"Stadion Dinamo","latitude":"44.45294","longitude":"26.10455"},{"id":"10486","name":"Vasile Lascar","latitude":"44.45286","longitude":"26.11122"},{"id":"10487","name":"Dr. Grozovici","latitude":"44.45267","longitude":"26.11471"},{"id":"10488","name":"Lizeanu","latitude":"44.45206","longitude":"26.1193"},{"id":"10489","name":"Bucur Obor","latitude":"44.44825","longitude":"26.12566"},{"id":"10490","name":"Bd. Ferdinand","latitude":"44.44327","longitude":"26.12988"},{"id":"10491","name":"Piata Iancului","latitude":"44.44155","longitude":"26.13281"}]},{"id":"1121","name":"Piata Iancului - Gara de Nord","geometry":"k}fnG_ko~CKIHxA??Br@Hp@??g@`A??i@`AWn@mFrK??cBjDy@|A_AbBiAbB??ORm@p@aCpB{B|ASN??[Rk@XeA\\??KD??qDz@aAXg@T}@l@WTyF`GaBdC??q@`AeAvB{@pB??]nA_@hB_@rB??G\\U|Ak@zDWzBKfAIpAMtBUrE?B??InBG`AOfEOxGCrC???l@?v@CvIAjAChDCdEC~H???Z?f@AfB@~BCzJC|H?xCCnF???p@??T~JJ|DJ`DPvF?@FxATvGLdD??HjB@b@??B^t@xMFbB?B?vM@vQ@d@CbC??e@JuCx@gBX?AUDsFl@sBT??UQG[@]??zAeBdBqB^c@??vAcBfGgHdAoABC??JO??x@a@`@K??b@H`HhDpCrAbAf@p@Z???FAT?vAA?AxBg@zBK^s@|Cm@dCg@vBOl@??XX~@dApAzArAzAl@p@Nd@JP~AfB","color":"901939","direction":"1","duration":"00:30","stops":[{"id":"10980","name":"Piata Iancului","latitude":"44.44137","longitude":"26.13441"},{"id":"10531","name":"Bd. Ferdinand","latitude":"44.44422","longitude":"26.12851"},{"id":"10532","name":"Bucur Obor","latitude":"44.44863","longitude":"26.12548"},{"id":"10533","name":"Lizeanu","latitude":"44.45186","longitude":"26.12042"},{"id":"10534","name":"Dr. Grozovici","latitude":"44.45265","longitude":"26.11579"},{"id":"10535","name":"Vasile Lascar","latitude":"44.45289","longitude":"26.11198"},{"id":"10536","name":"Stadion Dinamo","latitude":"44.453","longitude":"26.10595"},{"id":"10537","name":"Calea Dorobantilor","latitude":"44.45303","longitude":"26.099"},{"id":"10484","name":"Roma","latitude":"44.45275","longitude":"26.09393"},{"id":"10538","name":"Pasaj Victoria","latitude":"44.45255","longitude":"26.09126"},{"id":"10769","name":"Dr. C-tin Caracas","latitude":"44.4536745573","longitude":"26.0805282486"},{"id":"15487","name":"Piata Victoriei","latitude":"44.45245","longitude":"26.08412"},{"id":"15498","name":"Doctor Felix","latitude":"44.44899","longitude":"26.0822"},{"id":"15499","name":"Gara de Nord","latitude":"44.44787","longitude":"26.07622"}]}]}