{"status":"ok","data":[{"id":"1100","name":"Piata Sfantul Gheorghe - Pasaj Colentina","geometry":"_fenGili~Cl@GLKJ[IkB?Ac@aHIWy@o@{@w@??_A}@aC{AaBs@aA]sAgBaAsA{@eA[_DIm@_@uAkC_JIS??s@cBk@cAc@cAOyAOu@IKYQ_CwAm@a@kE}D??wCqCgIsGwCgC}AoAw@m@qD_DkLgL??iAiAaE}CaAs@k@m@]]QW]}@Sa@[YQIc@GkCu@}EyC??k@c@kAm@kIqFc@_@yFqD_IaFoMuH??kCyAcBgAcAg@eAa@oAg@mAq@sA_AcBK[Gy@]aAi@sAaAgAaA?@a@a@qA}A}@sA}@aBoBiEmBoEiBcFoCoHqCsIaAoCa@iAa@aBw@eDcC{KiBcI??q@yCg@yAm@gBiBeEqG{OaByD{GkP??cBkEaAyBwG}OcAaCAQDSHe@FO","color":"901939","direction":"0","duration":"00:40","stops":[{"id":"10576","name":"Piata Sf. Gheorghe","latitude":"44.43252","longitude":"26.10388"},{"id":"10577","name":"Hristo Botev","latitude":"44.4339431229","longitude":"26.1076400173"},{"id":"10783","name":"Bulevardul Carol I","latitude":"44.43851","longitude":"26.11495"},{"id":"10784","name":"Mihai Eminescu","latitude":"44.44327","longitude":"26.11915"},{"id":"10785","name":"Bucur Obor","latitude":"44.45053","longitude":"26.12547"},{"id":"10786","name":"Ziduri Mosi","latitude":"44.45428","longitude":"26.12821"},{"id":"10787","name":"Teiul Doamnei","latitude":"44.45657","longitude":"26.12984"},{"id":"10788","name":"Doamna Ghica","latitude":"44.461662513726","longitude":"26.1329927933692"},{"id":"10789","name":"Raul Colelntina","latitude":"44.46709","longitude":"26.13932"},{"id":"10790","name":"Cartier Colentina","latitude":"44.46869","longitude":"26.14299"},{"id":"10791","name":"Sportului","latitude":"44.47148","longitude":"26.15081"},{"id":"10792","name":"Cornisor","latitude":"44.473","longitude":"26.15375"},{"id":"10793","name":"Nicolae Canea","latitude":"44.4755","longitude":"26.15861"},{"id":"10794","name":"Pasaj Colentina","latitude":"44.4774958221","longitude":"26.1632266534"}]},{"id":"1099","name":"Pasaj Colentina - Piata Sfantul Gheorghe","geometry":"k`nnGa_u~CBZA\\Gb@L^C?|O~_@pD|I~@bCbA`CpBxEzBlFfBhE|@`Cx@fBb@tArCjM??xC|M\\~APdAj@~B`@jAzE`NnBxFnBtEr@dBdDvH`BtCvAhB~A`BjA|@jCbBvAbARPt@j@^JxBFXDlA`@zCxAnBjAdMpHtAt@nD~Bf@Z??|AdAbAj@bBjAxClBpD`ClBjAbAt@h@\\|CrB~@p@tAtAn@t@Th@PZLJTHz@HxA^t@`@r@f@bBlA|AnAdJ`JbHvGxBfB`PnMjB`BfDbD|BtBvChBXVJx@T`@l@rA`AnBr@rBnCjJPnA??XnC|BxCrAfB`A\\`Br@`CzAtBnBl@`@VZHz@Ef@ONSFc@?","color":"901939","direction":"1","duration":"00:35","stops":[{"id":"10795","name":"Pasaj Colentina","latitude":"44.47767","longitude":"26.16326"},{"id":"10796","name":"Nicolae Canea","latitude":"44.4757121099","longitude":"26.1589136613"},{"id":"10797","name":"Cornisor","latitude":"44.4734460278","longitude":"26.1544504655"},{"id":"10798","name":"Sportului","latitude":"44.47131","longitude":"26.15035"},{"id":"10799","name":"Cartier Colentina","latitude":"44.46849","longitude":"26.14239"},{"id":"10800","name":"Raul Colentina","latitude":"44.4669994616","longitude":"26.1389896763"},{"id":"10801","name":"Doamna Ghica","latitude":"44.4624205892","longitude":"26.1332502854"},{"id":"10802","name":"Teiul Doamnei","latitude":"44.45727","longitude":"26.13023"},{"id":"10803","name":"Ziduri Mosi","latitude":"44.45388","longitude":"26.12784"},{"id":"10804","name":"Bucur Obor","latitude":"44.45024","longitude":"26.12515"},{"id":"10805","name":"Mihai Eminescu","latitude":"44.44383","longitude":"26.11952"},{"id":"10806","name":"Bulevardul Carol I","latitude":"44.43802","longitude":"26.11451"},{"id":"10606","name":"Hristo Botev","latitude":"44.4344104427","longitude":"26.107725848"},{"id":"10607","name":"Piata Sf. Gheorghe","latitude":"44.43277","longitude":"26.10564"}]}]}