{"status":"ok","data":[{"id":"1710","name":"CFR Constanta - Pasajul Otopeni","geometry":"{fdnGqli~CA@aCHi@R[Lq@\\URKTKvA_@`FrAnBHHr@HtFRl@D|@?rABRCHCFg@RkBFiB??JgHM]MM]OwBJmHVYA[Ig@WOQOUYaA??eEmMKMGAIBq@r@s@v@i@n@e@dAg@|@ONMDM?}@Om@]MOa@w@Wk@W[m@a@II??kBeBaC{AaBs@aA]sAgBaAsA{@eA[_DIm@_@uAiB|@??iBfAmA|@kAh@e@Rs@RiCd@iD|Aa@D_@@OAq@SaCkA??wNkH_FiC?@_B{@a@zDa@rD]^SN[NEL_@z@MX??w@`Co@RwB^wAz@??{K`GkAf@wHpCaBr@??o@Ve@@SD??ID??AvE???vHCvHeABwEPwDH??gKJ}EAgOeBkDa@uAMkGo@uLsA\\_IZmF??tAgPXoCrAX^FbNrCdB^??vYjG|@PDa@A]I]K]OSuBqHqA{E{C}KOe@??gCuJkE_PmD{M_F{QuDuNyCuKuAgEk@uB","color":"2F91C9","direction":"0","duration":"00:20","stops":[{"id":"11472","name":"C.F.R. Constanta","latitude":"44.48675","longitude":"26.11561"},{"id":"11475","name":"Barbu Vacarescu","latitude":"44.48085","longitude":"26.10391"},{"id":"14226","name":"Pasaj Baneasa","latitude":"44.48645","longitude":"26.09405"},{"id":"15816","name":"Bulevardul Ficusului","latitude":"44.48893","longitude":"26.08446"},{"id":"11727","name":"Aeroport Baneasa","latitude":"44.4963","longitude":"26.07984"},{"id":"11938","name":"Pasaj CFR Otopeni","latitude":"44.529849877515","longitude":"26.0698407185555"}]},{"id":"1711","name":"Pasajul Otopeni - CFR Constanta","geometry":"apknG_zm~C?Cn@`Af@z@J\\dBjGJ`@rAbFnDbN??zIn\\jE~ObAxDnF~RfElO?f@Eh@GH}Bc@_LcCkJoBsEgAcB_@??gFeA]IuAWAL]hDo@pHg@dG??OfCWfFOlDPBtLrAtHr@rEh@`LpA??vAPbA@xC?nIInFKvEQdAC\\GB_IB{JAkBd@e@pCkAhDmAvBy@bAc@~C_B?@hIoEf@]lASbAUTIDOb@sAz@sBDMZOROZa@j@{ERqBD_@jCtAvCzA??dKfFnG`D^L^Fd@A\\E|BeAj@W\\GjB]r@SbAc@x@e@pBuAbDaB^tAHl@Z~C|BxCj@v@??f@n@`A\\`Br@`CzAtBnBl@`@VZVj@`@v@LNXRRH|@NL?LENOf@}@d@eAh@o@r@w@JI?Ad@g@?O?WBItD}Cz@k@d@e@`@i@^}@VkABmATmMv@UF@rBJfCHT@Ab@GlE??}@li@aCJ","color":"2F91C9","direction":"1","duration":"00:20","stops":[{"id":"11933","name":"Pasaj CFR Otopeni","latitude":"44.5293443141993","longitude":"26.0698208702087"},{"id":"11512","name":"Soseaua Bucuresti-Ploiesti","latitude":"44.4942531638","longitude":"26.0803050888"},{"id":"15816","name":"Bulevardul Ficusului","latitude":"44.48893","longitude":"26.08446"},{"id":"15815","name":"Pasaj Baneasa","latitude":"44.48578","longitude":"26.09482"},{"id":"11518","name":"Barbu Vacarescu","latitude":"44.48052","longitude":"26.10379"},{"id":"11472","name":"C.F.R. Constanta","latitude":"44.48675","longitude":"26.11561"}]}]}