{"status":"ok","data":[{"id":"1903","name":"Cora Pantelimon - Piata Rosetti","geometry":"sofnG_|y~CG@Gi@a@}Be@mDM{@QuACg@@]j@gB??uDaD??M^A?i@vAa@~@a@nA??ImCQiC_BgSQyAg@eC??UL??j@dCTpBdAtMd@hGF`CD`ADhAdCl[TrCCtAe@lF??QdB[dDWtCY|CvBTE^QhBw@|H??aASUEWE??KdAoApNI~@MzAEp@]hLY`JAXWnJGlB?FAXAd@Ad@OpGErBI~FAxASpPCdBE~AK`EI~AEh@e@fDKh@@XDZJ^D|@A`BKvCIvBIbC{@fUI`B??v@vAVn@Nh@\\`B??Z~FLlCFfAJlBBh@??BZLnCX`FTzDRpD^zGVdEN`CBn@NzBNvCt@lMBb@@X?LCdB??BZ@`@DFD\\F\\D`@??P~AD^BZFb@P`BLjAPbBHv@Jx@l@tFJjA`@nDLnARhB|A|Nn@|FBVHx@P`BHr@NtAV`CJnA??f@nE@@pAjM??OHIPGZCZ?\\D\\HVLVNRRFL???LrANnA?@BVP`BHt@@PJbATvBr@|GLhANxARlB?@Fd@PbBh@|Ep@nG??AjABj@NvAJb@P@LC??@o@A]","color":"2F91C9","direction":"0","duration":"00:25","stops":[{"id":"11330","name":"Cora Pantelimon","latitude":"44.4392217046853","longitude":"26.1883101356506"},{"id":"11331","name":"Soseaua Dudesti-Pantelimon","latitude":"44.4406","longitude":"26.19213"},{"id":"11376","name":"Granitul","latitude":"44.4408452869","longitude":"26.1818621052"},{"id":"11377","name":"Spitalul Pantelimon","latitude":"44.4419789718","longitude":"26.1751887691"},{"id":"11378","name":"Soseaua Fundeni","latitude":"44.4426683639","longitude":"26.1646852386"},{"id":"11326","name":"Bulevardul Chisinau","latitude":"44.4432068502","longitude":"26.1555115474"},{"id":"14208","name":"Sarafinesti","latitude":"44.4429","longitude":"26.14783"},{"id":"14209","name":"Zefirul","latitude":"44.44249","longitude":"26.14403"},{"id":"15158","name":"Lt. Victor Manu","latitude":"44.44206","longitude":"26.14024"},{"id":"11791","name":"Piata Iancului","latitude":"44.4411287102","longitude":"26.1322519672"},{"id":"15159","name":"Matasari","latitude":"44.44034","longitude":"26.12829"},{"id":"11792","name":"Scoala Iancului","latitude":"44.4395430542","longitude":"26.1237225426"},{"id":"11173","name":"Traian","latitude":"44.4388540082","longitude":"26.1196777714"},{"id":"11119","name":"Calea Mosilor","latitude":"44.4379496947","longitude":"26.1149999989"},{"id":"11120","name":"Armeneasca","latitude":"44.4370917139","longitude":"26.1105040801"},{"id":"14148","name":"Piata Rosetti","latitude":"44.43612","longitude":"26.10652"}]},{"id":"1904","name":"Piata Rosetti - Cora Pantelimon","geometry":"{|enGg|i~C???IIo@CQCMi@cAq@oGi@}EGg@@@K}@[uCOyAMiAs@}GUwBKcAAQIu@K{@?@Eg@SiBMsA??HIJWF_@?_@C_@G]M[QUMGMA??g@eF?@i@gFi@qEKoAWaCOuAIs@QaBYsC?@c@}D}A}NSiBMoASgB?@MiAKkAOuAUoBGo@K{@Iu@QcBMkACU?@MmAGc@I{@Q_B??M_AIq@Cs@??LaAGkAYyF?@YyFS_DSiDEs@??ImAUyD?Gg@mI?@M{BSqDYeFk@{KKkB??ASi@qKMwA??MsBA[K{B?@AKKiD?i@ZkITcH?@LcD\\yBLo@??Fa@AgACg@@eEHgF?@D}BBwBBwALaL@s@@u@?SD}B??@MBmBFoD@w@XeK??HoCDyA@}@HwCNiFBw@PcG?@@Y@YDmB\\_Ep@eHf@{F??Fg@L{APyBl@_HJeAPmAVcA??FSn@sA`@y@b@{@??La@@I?@@W??F}A@[YqCQiCNo@v@S@FBB@?DFJ?HCFO?M?@?GEOGE??VeB@GF]BO@KJo@F_@","color":"2F91C9","direction":"1","duration":"00:25","stops":[{"id":"14148","name":"Piata Rosetti","latitude":"44.43612","longitude":"26.10652"},{"id":"11105","name":"Armeneasca","latitude":"44.436724004","longitude":"26.1095068348"},{"id":"11106","name":"Calea Mosilor","latitude":"44.4377819298","longitude":"26.1150525702"},{"id":"11174","name":"Traian","latitude":"44.438708078","longitude":"26.1198381675"},{"id":"11782","name":"Scoala Iancului","latitude":"44.4394281499","longitude":"26.124151696"},{"id":"15160","name":"Matasari","latitude":"44.44044","longitude":"26.12946"},{"id":"14211","name":"Piata Iancului","latitude":"44.44133","longitude":"26.13534"},{"id":"15161","name":"Lt. Victor Manu","latitude":"44.442","longitude":"26.14088"},{"id":"14210","name":"Zefirul","latitude":"44.44237","longitude":"26.14417"},{"id":"11304","name":"Soseaua Iancului","latitude":"44.44318","longitude":"26.15155"},{"id":"11409","name":"Bulevardul Chisinau","latitude":"44.4426147448","longitude":"26.1590096844"},{"id":"11410","name":"Soseaua Morarilor","latitude":"44.4423236689","longitude":"26.1668417347"},{"id":"11411","name":"Spitalul Pantelimon","latitude":"44.44184","longitude":"26.1744"},{"id":"11412","name":"Granitul","latitude":"44.4405775655653","longitude":"26.1820010436058"},{"id":"11352","name":"Cora Pantelimon","latitude":"44.4393055851","longitude":"26.1873981846"}]}]}