{"status":"ok","data":[{"id":"1681","name":"Piata Unirii - Pasajul Colentina","geometry":"s|cnGeei~C??DoCLwA??]YcCFK@]?O@[@cGP??g@M_AUW?QF_@XOFQ@iLTu@B{@JkIjAg@BwAZk@NcB`@iAF??]q@YaAE]Y_C??McAMqAYqC??DeA@o@Cm@Io@CQCMi@cAq@oGi@}EQcB[uCOyAMiAs@}GUwBKcAAQIu@??c@c@WKsAq@g@]WS{@y@kHwGsBcBsEsDwEyD_@U]UgEuD_I{H?@uDuDgEaDs@g@w@y@??Ia@Gs@Hw@VY~@aAf@a@n@_@ZOrBk@RKVYd@O`A_@z@k@tDmCz@s@n@m@dCuCz@oA??Wu@g@sAIU[}@a@gAK]s@sB_@cA[{@So@?@K]Sm@cAaDwAiEg@uA_CcH_AoCkE{M??[cAKaAAaAD[Hc@T{@HYz@qCl@uBvBwGd@{A??c@s@[_@QQAE_AeAmB}BOQ]q@Oi@Ia@Y}AGcA@{@G{@GOsAoE??_BjBs@x@qA~A]b@q@bA{@nA??MPYb@ILoAlBa@n@mAtBCF{@nB}@~BA?mAvCYp@??Qd@s@|A??gAs@{B}A_DqBKGQCWE??c@vCw@nFMhA]dBa@|AUj@??Qb@Ul@}@~AiAtAwIrKyIvKeBtBaAbAc@\\??YEcBOa@Kc@Qq@_@yAcAsBgBs@w@u@cA_AaBqAkCaA{BUk@?@g@mA[w@EOg@mAkA}CoBsFoAmDWu@[_AuAcEc@q@g@sBS_AGYYsAI]cBkHS}@gDgOe@_BQi@Wo@}DiJGO]}@GMWm@u@iBSg@qA{CKW_AyBaA_CeAgC{@uBe@iA??KWgAmCmAuCM[w@kBi@sAsAcD_@}@CIq@_Bw@kBu@kBQs@","color":"2F91C9","direction":"0","duration":"00:25","stops":[{"id":"14280","name":"Piata Unirii 2","latitude":"44.4257","longitude":"26.10276"},{"id":"15254","name":"Piata Unirii 5","latitude":"44.42781","longitude":"26.10405"},{"id":"14217","name":"Universitate","latitude":"44.43441","longitude":"26.10307"},{"id":"11016","name":"Piata Rosetti","latitude":"44.435965595","longitude":"26.1052040351"},{"id":"11105","name":"Armeneasca","latitude":"44.436724004","longitude":"26.1095068348"},{"id":"11146","name":"Calea Mosilor","latitude":"44.4383020761","longitude":"26.1149141682"},{"id":"11147","name":"Mihai Eminescu","latitude":"44.44421","longitude":"26.12"},{"id":"11148","name":"Fainari","latitude":"44.4474326075","longitude":"26.1231002701"},{"id":"15238","name":"Bucur Obor ","latitude":"44.44803","longitude":"26.12557"},{"id":"11301","name":"Mihai Bravu 88","latitude":"44.44507","longitude":"26.12734"},{"id":"11109","name":"Avrig","latitude":"44.4453186182","longitude":"26.1328731668"},{"id":"11110","name":"Soseaua Pantelimon","latitude":"44.44664","longitude":"26.136"},{"id":"11111","name":"Gara Obor","latitude":"44.4482597999","longitude":"26.1405882729"},{"id":"11112","name":"Baicului","latitude":"44.4467896105","longitude":"26.1436776412"},{"id":"11900","name":"Electronica","latitude":"44.44862","longitude":"26.14755"},{"id":"11901","name":"Dimitrie Gozdea","latitude":"44.4500443511","longitude":"26.1480233562"},{"id":"11902","name":"Complex Comercial","latitude":"44.4515607938","longitude":"26.1460599792"},{"id":"11903","name":"Heliade Intre Vii","latitude":"44.4538966511","longitude":"26.1423263443"},{"id":"11904","name":"Scoala Generala 145","latitude":"44.45557","longitude":"26.14352"},{"id":"11905","name":"Scut-Gherase","latitude":"44.4578486325","longitude":"26.1384103191"},{"id":"11906","name":"Constanta","latitude":"44.4594870123","longitude":"26.1365005863"},{"id":"11152","name":"Doamna Ghica","latitude":"44.46298","longitude":"26.13379"},{"id":"11153","name":"Cremenita","latitude":"44.46473","longitude":"26.13537"},{"id":"11154","name":"Raul Colentina","latitude":"44.46693","longitude":"26.13913"},{"id":"11155","name":"Cartier Colentina","latitude":"44.46939","longitude":"26.14528"},{"id":"13987","name":"Sportului","latitude":"44.47156","longitude":"26.15112"},{"id":"13988","name":"Cornisor","latitude":"44.47341","longitude":"26.15473"},{"id":"13990","name":"Nicolae Canea","latitude":"44.4761","longitude":"26.1599"},{"id":"10794","name":"Pasaj Colentina","latitude":"44.4774958221","longitude":"26.1632266534"}]},{"id":"1682","name":"Pasajul Colentina - Piata Unirii","geometry":"cennGmdu~CBCxBpFh@t@t@jBv@jBp@~ABH^|@rAbDh@rAv@jBLZlAtCfAlCp@`BXt@@?^~@dAfC`A~B~@xBJVpAzCRf@t@hBVl@FL\\|@FN|DhJVn@Ph@d@~AfDfOR|@bBjHH\\XrAFXR~@f@rBD~@LZdInUnB`FFNTj@fAdC~@tBrArCr@lAr@bAfAnArBdBhExC~@t@ZZFLNJNFf@F??N[ZiAH]Tu@LWdB}BlG_I??lA}Az@aAxBkCrAaBpA_BdAwAT]`AmBXu@ZeAR{@No@n@uEd@aDd@}C??PBJF~CpBzB|AfAr@??r@}Aj@wAzBoF`A_CN_@lAuB`@o@nAmBHMXc@LQ??z@oAp@cA\\c@pA_Br@y@~AkB??rAnEFNFz@Az@FbAX|AH`@DL?@HX\\p@NPlB|B~@dA@DPPZ^b@r@??e@zAwBvGm@tB{@pCIXUz@Ib@EZ@`AJ`AZbA??jEzM~@nC~BbHf@tAvAhEbA`DRl@^jAZz@^bAr@rBJ\\`@fAZ|@HTf@rA??_AbByAvBm@p@aCpB{B|Ao@b@k@XC@yB\\{B`@wA^]Ny@d@i@^UP_A|@e@\\??[Za@r@OV??R^HRJLVHZF??|@L`@Jj@VhBjApDnCt@r@bDfDpClCvAtAb@`@bC|BPPlA~@ZVpCxBxDxCfAz@j@d@@?|BjBhH~Gz@z@z@n@tChBVJ??@PJbATvBr@|GLhANxAZtCPbBh@|Ep@nGAjABj@NvAJb@XbAXpCLpAf@bED\\BjAA`A??Af@DTRXN?NELOJKv@o@`@M|@UfCk@??ZS`@KnIiAlAGvBEhFKnA?NBPHRXFNDj@??E`AUtE??`AdBV^L@??f@Dh@@vCL@?l@BF@l@B^B??`CF??Nk@XkBF{D","color":"2F91C9","direction":"1","duration":"00:25","stops":[{"id":"13993","name":"Pasaj Colentina","latitude":"44.47841","longitude":"26.16416"},{"id":"13991","name":"Nicolae Canea","latitude":"44.47546","longitude":"26.1584"},{"id":"13989","name":"Cornisor","latitude":"44.47314","longitude":"26.15391"},{"id":"11134","name":"Sportului","latitude":"44.47088","longitude":"26.14939"},{"id":"11135","name":"Cartier Colentina","latitude":"44.46855","longitude":"26.14224"},{"id":"11136","name":"Raul Colentina","latitude":"44.4660569171","longitude":"26.137176503"},{"id":"11137","name":"Cremenita","latitude":"44.46435","longitude":"26.13445"},{"id":"11892","name":"Constanta","latitude":"44.4591730473","longitude":"26.1365327728"},{"id":"11893","name":"Scut-Gherase","latitude":"44.4571054307","longitude":"26.1389360321"},{"id":"11894","name":"Scoala Generala 145","latitude":"44.45544","longitude":"26.14329"},{"id":"11895","name":"Dumitru Slugeru","latitude":"44.4534524625","longitude":"26.1424550903"},{"id":"11896","name":"Complex Comercial","latitude":"44.4508025773","longitude":"26.146929015"},{"id":"11897","name":"Dimitrie Gozdea","latitude":"44.4497762889","longitude":"26.14817356"},{"id":"11898","name":"Electronica","latitude":"44.44872","longitude":"26.14716"},{"id":"11113","name":"Baicului","latitude":"44.4471802349","longitude":"26.1435488952"},{"id":"11114","name":"Gara Obor","latitude":"44.4486197782","longitude":"26.1403629673"},{"id":"11115","name":"Soseaua Pantelimon","latitude":"44.4459620143","longitude":"26.1339793098"},{"id":"11116","name":"Soseaua Mihai Bravu","latitude":"44.4441849981","longitude":"26.1298594368"},{"id":"11329","name":"Mihai Bravu 33","latitude":"44.44587","longitude":"26.12707"},{"id":"15237","name":"Bucur Obor","latitude":"44.44843","longitude":"26.12599"},{"id":"11141","name":"Fainari","latitude":"44.4470496441","longitude":"26.1225423706"},{"id":"11142","name":"Mihai Eminescu","latitude":"44.44449","longitude":"26.12009"},{"id":"11143","name":"Bulevardul Carol I","latitude":"44.4383786804","longitude":"26.1147103203"},{"id":"11120","name":"Armeneasca","latitude":"44.4370917139","longitude":"26.1105040801"},{"id":"11017","name":"Teatrul National","latitude":"44.4358583445","longitude":"26.1037454498"},{"id":"11400","name":"Piata Unirii 1","latitude":"44.42758","longitude":"26.10096"},{"id":"14280","name":"Piata Unirii 2","latitude":"44.4257","longitude":"26.10276"}]}]}