{"status":"ok","data":[{"id":"1714","name":"Piata Unirii - Depul Alexandria","geometry":"u|cnGgei~CAAFcEM]MM]OwBJa@B{FRi@R[Lq@\\URKTKvA_@`FrAnBHHr@HrEP??pBHbBFZXc@vBOt@HPtA`D??`FhL??fIhRfBfEdBvExA`EtA~Cn@hBdChFpBrE??vFzMZ`ATz@pAfJ@b@Hd@LTfCjEpBdErC~GjLnXxA`Dd@|@|CbF`@l@h@t@xEhHfElG`CbEtDfGnJ~NxC|Eh@nAx@dC`DvKrNve@fApDvAnFxArFNjAPpALj@f@hAv@lAPRHNjA`EnCrI?|@ETCHANBNLPF@D?TXd@t@","color":"2F91C9","direction":"0","duration":"00:20","stops":[{"id":"14280","name":"Piata Unirii 2","latitude":"44.4257","longitude":"26.10276"},{"id":"15253","name":"Piata Unirii 4","latitude":"44.42747","longitude":"26.10408"},{"id":"11400","name":"Piata Unirii 1","latitude":"44.42758","longitude":"26.10096"},{"id":"11580","name":"11 Iunie","latitude":"44.42433","longitude":"26.09583"},{"id":"11581","name":"Piata Regina Maria","latitude":"44.4219","longitude":"26.09113"},{"id":"12000","name":"Piata Chirigiu","latitude":"44.4174696261645","longitude":"26.0814080131531"},{"id":"12001","name":"Soseaua Progresului","latitude":"44.41498","longitude":"26.07696"},{"id":"14333","name":"Sebastian","latitude":"44.41272","longitude":"26.07288"},{"id":"14334","name":"Petre Ispirescu","latitude":"44.41044","longitude":"26.0697"},{"id":"12192","name":"Piata Rahova","latitude":"44.4059430809341","longitude":"26.0632762802124"},{"id":"12177","name":"Teius","latitude":"44.40283","longitude":"26.05615"},{"id":"12178","name":"Antiaeriana","latitude":"44.40067","longitude":"26.05062"},{"id":"11262","name":"Depul Alexandria","latitude":"44.39842","longitude":"26.04435"}]},{"id":"1715","name":"Depoul Alexandriei - Piata Unirii","geometry":"eo~mGwx}}CA?SkAQ_@?OCOGIC_@Yk@k@gBcBkFkAaE[}BGc@Q}@g@yAk@kA_BwF??mB}GyDeM}E}PuH{VoAoDeD}Fc@w@yAgCiDaFkCgE_BgCmJqN}D}FwAcCkD{F[o@eBcEsCoGs@kBoBiEgBqEkByE_CsEg@cAqA}B}@}AK]OIqAgJU{@[aAwCgHqEgKeCiFo@iBuA_DyAaEeBwEeC_G}BsFaJsS??aCuFIQNu@p@_DPuALeBFgD","color":"2F91C9","direction":"1","duration":"00:20","stops":[{"id":"11278","name":"Depoul Alexandria","latitude":"44.39822","longitude":"26.04436"},{"id":"14055","name":"Depou Alexandria","latitude":"44.39926","longitude":"26.04744"},{"id":"12179","name":"Antiaeriana","latitude":"44.4004227168599","longitude":"26.0506076705932"},{"id":"12180","name":"Teius","latitude":"44.4030062844696","longitude":"26.0570551646232"},{"id":"12144","name":"Piata Rahova","latitude":"44.40656","longitude":"26.06471"},{"id":"12145","name":"Petre Ispirescu","latitude":"44.4108022872575","longitude":"26.0704688919067"},{"id":"12007","name":"Calea Rahovei","latitude":"44.413201467245","longitude":"26.0740587604523"},{"id":"12008","name":"Soseaua Progresului","latitude":"44.41582968455","longitude":"26.0790691268921"},{"id":"11576","name":"Piata Chirigiu","latitude":"44.4179","longitude":"26.083"},{"id":"11577","name":"Piata Regina Maria","latitude":"44.42105","longitude":"26.09025"},{"id":"11578","name":"11 iunie","latitude":"44.4234649839","longitude":"26.0944564236"},{"id":"14280","name":"Piata Unirii 2","latitude":"44.4257","longitude":"26.10276"}]}]}