{"status":"ok","data":[{"id":"1726","name":"Piata Unirii - Aeroportul Henri Coanda","geometry":"w|cnGaei~C?AFiEM]MM]OwBJmHVs@E{@MY?m@Js@P??m@D_KTcBNiANmC^kAPUCmDx@{@RgARW@y@H[Z]\\iAt@{Ap@uH~C??a[fMyIbDeNpFSLORkLpYqJ`V??sFtMmBPaCZW?cC?qCAcWCwBAa@G_@E]Du@Do_@_AWCm@a@k@i@OIOCUBYPMVKd@@j@J`@VvA?v@{@rM??eB`YK^gBnCo[hMm_@fOYHWD_AB[A]Fi@?OCe@S}SiK??_GwCk@a@e@_@a@U??y@W{@Sa@QqIgEcCaAaHcCqAc@aB[yAQoAKyDMwASs@IyCIcD?qCD{FNi@?[?G[Uc@YUYKA???e@Ee@Jm@\\W?g@GWFqAOuAIqR{C??mEs@qK_CyD{@qAUwKsA_BMuA?_AHyAViCr@iCXgD|@sEvA??aFtAEAO@MJCDMAK@QFwJrCcBh@uAp@c@j@k@\\eBtAyF`Fib@d_@qA~@{@j@qB`AeBl@qLbDmKxCgI`CcAR}ARqBLcDAmEG??ku@w@??mc@g@yW_@if@w@iKS??u]k@WAg@Su@e@[Ws@gAg@wAYuB]aKKeD?aAHa@N_@D_@Eu@Q[QMUEY@_@E{BJ??aAFACCBSSAE??AMDOJu@Ay@Uo@a@i@[IwBN??_@H_@`@M^Gb@CzAEVITOTiB`@]Py@b@QDc@I[K[BSPQZETAVHl@R^LHPBP?NETWz@[vE_@nL_Ad@HRHXVLBVA\\SPa@D_@Aa@I]HUL[LKp@g@Vo@Hs@Cw@Ok@c@q@m@SuBR??}@H??I?","color":"2F91C9","direction":"0","duration":"00:45","stops":[{"id":"14280","name":"Piata Unirii 2","latitude":"44.4257","longitude":"26.10276"},{"id":"14217","name":"Universitate","latitude":"44.43441","longitude":"26.10307"},{"id":"11637","name":"Piata Romana","latitude":"44.44534","longitude":"26.09767"},{"id":"11639","name":"Piata Victoriei","latitude":"44.4514757821","longitude":"26.0879617226"},{"id":"11722","name":"Arcul de Triumf","latitude":"44.4676196492","longitude":"26.0784683121"},{"id":"11724","name":"Piata Presei","latitude":"44.4782613471","longitude":"26.0732433689"},{"id":"11726","name":"Pod Baneasa","latitude":"44.4913043493","longitude":"26.0793480766"},{"id":"11727","name":"Aeroport Baneasa","latitude":"44.4963","longitude":"26.07984"},{"id":"11926","name":"Institutul Meteorologic","latitude":"44.51281","longitude":"26.08103"},{"id":"11936","name":"Aleea Privighetorilor","latitude":"44.5184518393437","longitude":"26.0780606163025"},{"id":"11938","name":"Pasaj CFR Otopeni","latitude":"44.529849877515","longitude":"26.0698407185555"},{"id":"14375","name":"Amco","latitude":"44.54093","longitude":"26.06882"},{"id":"14377","name":"Primaria Otopeni","latitude":"44.55009","longitude":"26.06911"},{"id":"14380","name":"ICSITMUA","latitude":"44.55988","longitude":"26.06948"},{"id":"14389","name":"Aeroportul Henri Coanda Plecari","latitude":"44.57147","longitude":"26.07693"},{"id":"14390","name":"Aeroportul Henri Coanda Sosiri","latitude":"44.56966","longitude":"26.07725"}]},{"id":"1727","name":"Aeroportul Henri Coanda - Piata Unirii","geometry":"__`oGsed~C??]BSH_@f@Ur@CdAD^A`@Uz@QPSSCSDOJu@Ay@Uo@a@i@[IyBN??]H_@`@M^Gb@CzAEVITOTiB`@]Py@b@QDc@I[K[BSPQZETAVHjAt@fGHj@~BxLBf@MLEN?VBNHLJDNABCf@LnADv@An@DlFJtCAn@GD@??dLVl^n@tIN`U^??bk@|@t|@|@b]^`EDjAA|AI~@M~@Oz@SfLeDnKwC~JuCtB}@lBkA~@s@rF}EhO{MnGwF??lIkH~AsAdBcA|ASdCq@xHoBrA[JAJIdAe@hA[??jI_C|Ae@hD}A~Cw@nAS~@GdA@`AH`BPbIbAvCj@jLhC~E|@|TnDpBj@tATbEn@t@Hh@@??xECt@GlAGlEIpCH~@@jAI`FNbBJjAN??pAThBj@xE`BbE~AlJvEXNd@d@RPx@b@lA\\tKlFlPhIl@d@`@r@HPNLTHXEPOv@{@d@_@lTyI??zf@{Rj@Mt@@PIr@kAVWRO`G_ChO_GzAs@fBs@??v_@kOfGoCvH}D`Cu@jBs@|@y@d@c@AgBhDaJd@iAhCsG??xQid@h@qAVWxImD`HkC??lJmDdJsDrDwAdDyAjDsAvCkA|D}At@SbAi@`Bs@~Cu@??h@KROjBUjEm@^E~@GpJSx@BVDTHPLJRBXi@nHvArBTHfAHlDL??rBHbBFh@MFg@RkBJmD","color":"2F91C9","direction":"1","duration":"00:45","stops":[{"id":"14390","name":"Aeroportul Henri Coanda Sosiri","latitude":"44.56966","longitude":"26.07725"},{"id":"14389","name":"Aeroportul Henri Coanda Plecari","latitude":"44.57147","longitude":"26.07693"},{"id":"14383","name":"Aeroportul Henri Coanda","latitude":"44.56846","longitude":"26.06964"},{"id":"14381","name":"ICSITMUA","latitude":"44.55971","longitude":"26.06922"},{"id":"14378","name":"Primaria Otopeni","latitude":"44.55073","longitude":"26.06886"},{"id":"14376","name":"Amco","latitude":"44.54133","longitude":"26.0686"},{"id":"11933","name":"Pasaj CFR Otopeni","latitude":"44.5293443141993","longitude":"26.0698208702087"},{"id":"11935","name":"Aleea Privighetorilor","latitude":"44.5173808400037","longitude":"26.0785541427612"},{"id":"11914","name":"Institutul Meteorologic","latitude":"44.51309","longitude":"26.08032"},{"id":"11729","name":"Aeroport Baneasa","latitude":"44.4958579971","longitude":"26.0787794483"},{"id":"11730","name":"Pod Baneasa","latitude":"44.4906155313","longitude":"26.0788438213"},{"id":"11732","name":"Casa Presei","latitude":"44.4788814149","longitude":"26.072846402"},{"id":"14391","name":"Docentilor","latitude":"44.46256","longitude":"26.08037"},{"id":"11592","name":"Piata Victoriei","latitude":"44.4514880361","longitude":"26.087373246"},{"id":"11594","name":"Piata Romana","latitude":"44.4461573296","longitude":"26.0970072043"},{"id":"11595","name":"Piata 21 Decembrie 1989","latitude":"44.43642","longitude":"26.10177"},{"id":"11400","name":"Piata Unirii 1","latitude":"44.42758","longitude":"26.10096"},{"id":"14280","name":"Piata Unirii 2","latitude":"44.4257","longitude":"26.10276"}]}]}