{"status":"ok","data":[{"id":"1085","name":"Sura Mare - Serban Voda - Nerva Traian - Sos. Mihai Bravu","geometry":"ab_nGqhh~CA@TvC??o@AwCAqA@oABOA]g@q@EeDdB}Ar@??qB|@aCpAsCxA[J_@Hq@C_@K_CkBcBoAm@a@i@m@IO??KOsC_Ew@oAaAwAy@mA}@oAeA_B@?AAYa@aCsEUc@cHiMaAmBa@q@IQ??Yg@k@aAYi@?@]q@a@u@kAwBYi@M]I[Ge@EyBEsAKiEIcEGcCGeAOaAM_@Ys@e@eA??w@gBUe@Qa@??EIa@y@MO??K]IKkBg@c@Kq@SYKUMwEmD_Aq@@?u@i@iBuAm@c@m@e@}HgGiCmB_BoA???qAEiFA_IAkB?@?e@Ae@??tA?XKRY^q@XYhAm@??XOzHkFtEaDXWTW?@?A??`BeCfBmC`DuE??NUn@_AnCuDr@eAjAoBfEoH\\e@T[BA{BuDsBsBeGcE??KGy@a@i@UqEyB??WMiBaAaAg@??m@[_@K_Gg@c@CUCeI{@}AMwBS}BM@?m@EuAMgAUuAa@eFcBWIoBq@??QG}Ae@k@OWW]M_@G@?a@Is@E{@?oAFg@F]HOD??k@Pa@Nc@LmA^k@R}Al@yDxAOD}@\\qAv@WHgD|@QD@?_AVWFsF|A??]HQHYLwCjBw@f@cBhAgBfAkChBy@|@??a@d@oAzAqAbCWn@aHlN??o@pAy@|A_AbByAvBm@p@aCpB{B|Ao@b@k@XqAb@m@GqEdA]Ny@d@??i@^UP_B|A??a@ZSVKVQX??a@h@w@jAaBfCa@v@a@v@a@dASdA]nA_@hBQ`A??UnAU|Ak@zDWzBKfAIpAMtBUrEIrBG`AOfEM|F??AZC`E?v@CvIAjAChDCdEChI?@?N?f@AfB@~BCzJC|H?xCC`H??T~JJ|DJ`DRlG?@DbATvGNrD?@FzA@b@??B^t@xMFbBA`SDvM??CbC@`F@~RyBdQ@dArCfIpC`GdEfFhNv_@~BbGxCnDdEdCfElA`Eh@fIbBpGbHIH~@|@zBfDvF|Hd@j@b@d@@?p@r@`BbAnAh@bBf@pARlAH|CH??H?T?XAD?nB?tIDV?`AC~OY??P?D?TGb@S???C?BWgJS}Gg@sPCmBd@{AdAsAvRaWvPcVxVo^rNqRh\\_b@LUpLcPV_@HQ??HW@WE_@O[]_@u@q@gAy@gEsC@@y@i@??IOCIAOBOVY\\WtAw@pBeAhCsA|@e@h@a@z@{@Xc@??DGp@iAfAsBtDkHnBsDbBeDDI??dAuBLS`@[??t@]fB{@RK`DwA^Mb@EZCn@AxCEjAD","color":"901939","direction":"0","duration":"02:00","stops":[{"id":"10464","name":"Sura Mare","latitude":"44.4011907853","longitude":"26.0981879128"},{"id":"10465","name":"Sura Mare","latitude":"44.40161","longitude":"26.09735"},{"id":"10512","name":"Cutitul de Argint","latitude":"44.40902","longitude":"26.09725"},{"id":"10513","name":"ADESGO","latitude":"44.41129","longitude":"26.10036"},{"id":"10514","name":"Liceul Gheorghe Sincai","latitude":"44.41449","longitude":"26.10537"},{"id":"10515","name":"Universitatea Crestina Dimitrie Cantemir","latitude":"44.41652","longitude":"26.11282"},{"id":"10516","name":"Scoala Generala Nr.81","latitude":"44.4196229376","longitude":"26.1154076946"},{"id":"10517","name":"Papazoglu","latitude":"44.42109","longitude":"26.11659"},{"id":"10518","name":"Bd. Octavian Goga","latitude":"44.42343","longitude":"26.11846"},{"id":"10519","name":"Posta Vitan","latitude":"44.423937368","longitude":"26.1226598514"},{"id":"10520","name":"Piata Vitan","latitude":"44.42259","longitude":"26.12384"},{"id":"10521","name":"Bucuresti Mall","latitude":"44.41965","longitude":"26.126"},{"id":"10522","name":"Zizin","latitude":"44.41779","longitude":"26.1285"},{"id":"10523","name":"Calea Vitan","latitude":"44.41544","longitude":"26.1335"},{"id":"10524","name":"Laborator","latitude":"44.41734","longitude":"26.1351"},{"id":"10526","name":"Calea Dudesti","latitude":"44.41991","longitude":"26.13659"},{"id":"10525","name":"Baba Novac","latitude":"44.42518","longitude":"26.13754"},{"id":"10527","name":"Gheorghe Petrascu","latitude":"44.42839","longitude":"26.13874"},{"id":"10528","name":"Piata Hurmuzachi","latitude":"44.43135","longitude":"26.13923"},{"id":"10529","name":"Vatra Luminoasa","latitude":"44.43735","longitude":"26.13651"},{"id":"10530","name":"Piata Iancului","latitude":"44.44075","longitude":"26.134"},{"id":"10490","name":"Bd. Ferdinand","latitude":"44.44327","longitude":"26.12988"},{"id":"10532","name":"Bucur Obor","latitude":"44.44863","longitude":"26.12548"},{"id":"10533","name":"Lizeanu","latitude":"44.45186","longitude":"26.12042"},{"id":"10534","name":"Dr. Grozovici","latitude":"44.45265","longitude":"26.11579"},{"id":"10535","name":"Vasile Lascar","latitude":"44.45289","longitude":"26.11198"},{"id":"10536","name":"Stadion Dinamo","latitude":"44.453","longitude":"26.10595"},{"id":"10537","name":"Calea Dorobantilor","latitude":"44.45303","longitude":"26.099"},{"id":"10484","name":"Roma","latitude":"44.45275","longitude":"26.09393"},{"id":"10538","name":"Pasaj Victoria","latitude":"44.45255","longitude":"26.09126"},{"id":"10539","name":"Dr. Felix","latitude":"44.45217","longitude":"26.07995"},{"id":"10540","name":"Bd. Banu Manta","latitude":"44.45276","longitude":"26.0738"},{"id":"10541","name":"Pasaj Basarab","latitude":"44.44987","longitude":"26.06841"},{"id":"10542","name":"Pod Grozavesti","latitude":"44.44249","longitude":"26.06034"},{"id":"10543","name":"Bd. Iuliu Maniu","latitude":"44.43475","longitude":"26.05436"},{"id":"10544","name":"Bd.Timisoara","latitude":"44.42901","longitude":"26.05445"},{"id":"10545","name":"Piata Danny Huwe","latitude":"44.42854","longitude":"26.0621"},{"id":"10546","name":"APRODEX","latitude":"44.42539","longitude":"26.06595"},{"id":"10547","name":"Calea 13 Septembrie","latitude":"44.42251","longitude":"26.06964"},{"id":"10548","name":"Inox","latitude":"44.41869","longitude":"26.07472"},{"id":"10470","name":"Calea Rahovei","latitude":"44.4162","longitude":"26.07782"},{"id":"10550","name":"Spatarul Preda","latitude":"44.41154","longitude":"26.08339"},{"id":"10551","name":"Sos.Viilor","latitude":"44.41095","longitude":"26.08841"},{"id":"10467","name":"Stefan Hepites","latitude":"44.40832","longitude":"26.0911"},{"id":"10553","name":"Piata Eroii Revolutiei","latitude":"44.40568","longitude":"26.09535"},{"id":"10511","name":"Cimitirul Serban Voda","latitude":"44.40172","longitude":"26.09883"}]},{"id":"1942","name":"Sura Mare - Mihai Bravu","geometry":"ub_nGahh~C??HnACXMTMHUAmAEa@@aB???eAFOEIGQ_@KGOCUBWHeB~@cCrAkAn@ST[b@k@nA_B`D{CfGyAxCsCrFi@v@kAtBUXa@`@iGlD??yCzA_Aj@o@z@STfFdDhChBzArAR^DHBb@E`@QXkNlR}D`F??}N|QsA|A_GvHaIjKcK|NiJlNQV{CbEeHdKaLtOoBbC??cGrHq@p@s@fAUx@E^?\\Dt@ZtL??l@zU?LM@mENiCB??oHJcGCuFGiEAcBOkB_@}Ao@yA}@kAcA}@eAqAgB{EaHqAiB??}E_HQc@g@]yJ}AiIqB_Be@cAi@e@[Y]sAoAe@i@[k@_A_By@gBmI}UwGkN?AqAqAk@y@_AeBmA{Cu@gBgAoCCUA_@BWbAyJ??t@sH@yJ?oLC}ABeJFsC?oP?]Ey@UwEi@uIEw@QsG??_@aKk@uRKcJCgMF{TAyDDoTNgU@kDLiCT{F`@gJH}B\\kDjAoHl@uD\\iBl@_CNo@Vm@jAaCt@iAz@{@`HyG~@aAh@]DC??v@]r@Wx@UbB[`By@tAy@`CgBb@a@hBmBb@_@dBgCbAkBfEaJrC_Gl@cA|@_Bj@aAD]?[GUIOOIQBSJKVAV?VBz@a@l@]r@","color":"901939","direction":"0","duration":"00:45","stops":[{"id":"10464","name":"Sura Mare","latitude":"44.4011907853","longitude":"26.0981879128"},{"id":"10465","name":"Sura Mare","latitude":"44.40161","longitude":"26.09735"},{"id":"10466","name":"Piata Eroii Revolutiei","latitude":"44.40612","longitude":"26.0947"},{"id":"10467","name":"Stefan Hepites","latitude":"44.40832","longitude":"26.0911"},{"id":"10468","name":"Dr. Constantin Istrati","latitude":"44.41099","longitude":"26.08919"},{"id":"10550","name":"Spatarul Preda","latitude":"44.41154","longitude":"26.08339"},{"id":"10470","name":"Calea Rahovei","latitude":"44.4162","longitude":"26.07782"},{"id":"10471","name":"Inox","latitude":"44.419","longitude":"26.07447"},{"id":"10472","name":"Calea 13 Septembrie","latitude":"44.42299","longitude":"26.06913"},{"id":"10473","name":"APRODEX","latitude":"44.42574","longitude":"26.06558"},{"id":"10474","name":"Piata Danny Huwe","latitude":"44.42885","longitude":"26.06183"},{"id":"10475","name":"Bd. Vasile Milea","latitude":"44.4287337857","longitude":"26.0549077881"},{"id":"10476","name":"Bd. Iuliu Maniu","latitude":"44.4352","longitude":"26.05443"},{"id":"10477","name":"Pod Grozavesti","latitude":"44.44274","longitude":"26.06051"},{"id":"10478","name":"Pasajul Basarab","latitude":"44.45015","longitude":"26.06912"},{"id":"10479","name":"Bd. Banu Manta","latitude":"44.45257","longitude":"26.07432"},{"id":"10480","name":"Dr. Felix","latitude":"44.45208","longitude":"26.08058"},{"id":"10481","name":"Pasajul Victoria","latitude":"44.45253","longitude":"26.09194"},{"id":"10482","name":"Roma","latitude":"44.45274","longitude":"26.09464"},{"id":"10483","name":"Calea Dorobantilor","latitude":"44.45296","longitude":"26.0983"},{"id":"10485","name":"Stadion Dinamo","latitude":"44.45294","longitude":"26.10455"},{"id":"10486","name":"Vasile Lascar","latitude":"44.45286","longitude":"26.11122"},{"id":"10487","name":"Dr. Grozovici","latitude":"44.45267","longitude":"26.11471"},{"id":"10488","name":"Lizeanu","latitude":"44.45206","longitude":"26.1193"},{"id":"10489","name":"Bucur Obor","latitude":"44.44825","longitude":"26.12566"},{"id":"10490","name":"Bd. Ferdinand","latitude":"44.44327","longitude":"26.12988"},{"id":"10491","name":"Piata Iancului","latitude":"44.44155","longitude":"26.13281"}]},{"id":"1086","name":"Sura Mare - Sos. Viilor - Pasaj Basarab - Sos. Stefan cel Mare - Sos. Mihai Bravu","geometry":"}d_nG_dh~CkH\\mBPcHpDcErHIC]p@kA|B??aB`DyDlHo@fAqAbB}LxGyArAO^EHz@f@vE|CxCxBb@d@NVFVFl@??IPW^qLbP??_EhFsHlJiDdEo@v@QT??cB~BWVuPzTa@h@}@pA}QfXW\\OTkDvEeHzJaArA_DnE_RjV}@bAIjAK?HtB^rOb@jQ???H??IVIJE?aPVuABwMEE?[AS?gBC??M?s@AkAGuAQqAa@wAq@kAw@KGyAuA]e@qAgB{E{Ge@q@?@}FeIYe@wGiBaGgA{IkCeBiAwBuBeCyDoC}HqFkPyD_IeDeE}AiCmA_D{AuDe@aBb@}Dz@eGf@kEB_XGgMG_\\mAkZB?e@_NGkA?@C{@WkIOsKJed@Lsh@A?@}@@sCDiDJsCJ_D??Bs@FqAd@aJDy@HgBR_Bh@kD??ViBZsBDUt@{D^yA??`@k@~@wB|@_BV_@^_@d@c@n@a@`Am@??XORMPUL]??JQp@y@VY~@aA^Y??FGn@_@ZOnAa@b@IRKVYd@O`A_@z@k@tDmCz@s@n@m@|AiB??f@k@z@oAd@gAx@gBtC_G~DiIvCmExAcBrNaJ~NmE~QiF|IiC~D?vHnBlSxErCHxTdBnEtBABdHjD`CxAzBzA@?zAfAt@n@b@h@f@l@`BjC??kB`D??}ApCuBjDuAnBgAxA??cAxA{GvJoAhBW^YXCB?AeAv@mAz@q@d@MHIF{HdFsAr@eExCS^B@@^B|L@hH?\\?@?P??ZTh@`@v@l@nBvAdFvDjBtA??nA~@lBtArA`AxAfA?@bChBl@`@XNt@Td@L`Bb@d@F??LN`@x@DH??P`@Td@v@fB??d@dAXr@L^N`AFdAFbCHbEJhEDrADxBFd@HZL\\Xh@jAvB`@t@v@xAj@`AJR@@JP??HP`@p@`AlBbHhMTb@`CrEX`@dA`Bd@n@?@V\\x@lA`AvAv@nArC~DT^h@l@h@^rFpDhGo@bC{@hTyMfAc@\\C^jB","color":"901939","direction":"1","duration":"02:00","stops":[{"id":"10465","name":"Sura Mare","latitude":"44.40161","longitude":"26.09735"},{"id":"10466","name":"Piata Eroii Revolutiei","latitude":"44.40612","longitude":"26.0947"},{"id":"10467","name":"Stefan Hepites","latitude":"44.40832","longitude":"26.0911"},{"id":"10468","name":"Dr. Constantin Istrati","latitude":"44.41099","longitude":"26.08919"},{"id":"10469","name":"Spatarul Preda","latitude":"44.4113","longitude":"26.08374"},{"id":"10549","name":"Calea Rahovei","latitude":"44.4151","longitude":"26.07912"},{"id":"10471","name":"Inox","latitude":"44.419","longitude":"26.07447"},{"id":"10981","name":"Calea 13 Septembrie","latitude":"44.4220673481","longitude":"26.070228566"},{"id":"10473","name":"APRODEX","latitude":"44.42574","longitude":"26.06558"},{"id":"10474","name":"Piata Danny Huwe","latitude":"44.42885","longitude":"26.06183"},{"id":"10475","name":"Bd. Vasile Milea","latitude":"44.4287337857","longitude":"26.0549077881"},{"id":"10476","name":"Bd. Iuliu Maniu","latitude":"44.4352","longitude":"26.05443"},{"id":"10477","name":"Pod Grozavesti","latitude":"44.44274","longitude":"26.06051"},{"id":"10478","name":"Pasajul Basarab","latitude":"44.45015","longitude":"26.06912"},{"id":"10479","name":"Bd. Banu Manta","latitude":"44.45257","longitude":"26.07432"},{"id":"10480","name":"Dr. Felix","latitude":"44.45208","longitude":"26.08058"},{"id":"10481","name":"Pasajul Victoria","latitude":"44.45253","longitude":"26.09194"},{"id":"10482","name":"Roma","latitude":"44.45274","longitude":"26.09464"},{"id":"10483","name":"Calea Dorobantilor","latitude":"44.45296","longitude":"26.0983"},{"id":"10485","name":"Stadion Dinamo","latitude":"44.45294","longitude":"26.10455"},{"id":"10486","name":"Vasile Lascar","latitude":"44.45286","longitude":"26.11122"},{"id":"10487","name":"Dr. Grozovici","latitude":"44.45267","longitude":"26.11471"},{"id":"10488","name":"Lizeanu","latitude":"44.45206","longitude":"26.1193"},{"id":"10489","name":"Bucur Obor","latitude":"44.44825","longitude":"26.12566"},{"id":"10531","name":"Bd. Ferdinand","latitude":"44.44422","longitude":"26.12851"},{"id":"10491","name":"Piata Iancului","latitude":"44.44155","longitude":"26.13281"},{"id":"10492","name":"Vatra Luminoasa","latitude":"44.43782","longitude":"26.13618"},{"id":"10493","name":"Mieilor","latitude":"44.43517","longitude":"26.13726"},{"id":"10494","name":"Gheorghe Petrascu","latitude":"44.42796","longitude":"26.13848"},{"id":"10495","name":"Baba Novac","latitude":"44.4246649011","longitude":"26.1374018085"},{"id":"10496","name":"Calea Dudesti","latitude":"44.41942","longitude":"26.13624"},{"id":"10497","name":"Laboratorului","latitude":"44.41695","longitude":"26.13472"},{"id":"10498","name":"Calea Vitan","latitude":"44.41534","longitude":"26.13212"},{"id":"10499","name":"Zizin","latitude":"44.41756","longitude":"26.12892"},{"id":"10500","name":"Bucuresti Mall","latitude":"44.41988","longitude":"26.12592"},{"id":"10501","name":"Piata Vitan","latitude":"44.42296","longitude":"26.12368"},{"id":"10502","name":"Posta Vitan","latitude":"44.42399","longitude":"26.12204"},{"id":"10503","name":"Nerva Traian","latitude":"44.42396","longitude":"26.11925"},{"id":"10504","name":"Papazoglu","latitude":"44.42127","longitude":"26.11664"},{"id":"10505","name":"Scoala Generala Nr 81","latitude":"44.419730218","longitude":"26.1153755081"},{"id":"10506","name":"Universitatea Crestina Dimitrie Cantemir","latitude":"44.41644","longitude":"26.11258"},{"id":"10507","name":"Liceul Gheorghe Sincai","latitude":"44.41433","longitude":"26.10503"},{"id":"10508","name":"ADESGO","latitude":"44.41141","longitude":"26.10044"},{"id":"10509","name":"Cutitul de Argint","latitude":"44.4088","longitude":"26.09689"},{"id":"10510","name":"Cimitirul Eroii Revolutiei","latitude":"44.40592","longitude":"26.09599"},{"id":"10511","name":"Cimitirul Serban Voda","latitude":"44.40172","longitude":"26.09883"},{"id":"10464","name":"Sura Mare","latitude":"44.4011907853","longitude":"26.0981879128"}]},{"id":"1943","name":"Mihai Bravu - Sura Mare","geometry":"g~fnGaao~C@AbBwCFSBS?UESIOMQAA[NMFMPENBdBYb@_ArBUb@??yD`ImD~GmAvBgAdB}@bAc@b@gBvAC@??{B`BkAn@{@X{@NgA^w@PeAXaAf@oA|@gErEk@d@kAbBeAbB}BrEg@rBS|@??s@xDOfAiA|Ha@~Gg@rKWtHMxIEvKIrXAnE?|KGpM?rD@`CTbKTpIHfEj@zOVtEj@fKDzAFxGE~LDjBArMClVApAw@zH??}@tII~A\\n@pB`FpBrEtAvBbAhA~@|AjBhEnEfK`CbHx@hCj@pBbAzBv@rAz@hAhAjAx@n@lBjA~Aj@jCh@|AHXBnCl@lCh@^D^PfAZp@`@xBtCpBlC`HxJ?@nBpCjBnB|@p@tAr@bBj@r@NfD\\dDDvCEfL@pJMh@D|@AlBQRGRM[cJa@gP??UeJBk@Hg@BSDOLS|@wArJwL`LuO`GuI??pEkGhJmNbK}N`IkK~FwHrA}AzT_YpFoH??fGoITa@B[Aa@IWOUsBkBsGkEIQCM@WBKtEsCfDcBhBkAv@}@bDwF|EwJ??pDmH`@u@^a@b@e@RS\\QbEuBb@Un@u@jBmBh@e@bAw@~@k@??|@y@NWHMJEN@LRFZPbC","color":"901939","direction":"1","duration":"00:45","stops":[{"id":"10491","name":"Piata Iancului","latitude":"44.44155","longitude":"26.13281"},{"id":"10531","name":"Bd. Ferdinand","latitude":"44.44422","longitude":"26.12851"},{"id":"10532","name":"Bucur Obor","latitude":"44.44863","longitude":"26.12548"},{"id":"10533","name":"Lizeanu","latitude":"44.45186","longitude":"26.12042"},{"id":"10534","name":"Dr. Grozovici","latitude":"44.45265","longitude":"26.11579"},{"id":"10535","name":"Vasile Lascar","latitude":"44.45289","longitude":"26.11198"},{"id":"10536","name":"Stadion Dinamo","latitude":"44.453","longitude":"26.10595"},{"id":"10537","name":"Calea Dorobantilor","latitude":"44.45303","longitude":"26.099"},{"id":"10484","name":"Roma","latitude":"44.45275","longitude":"26.09393"},{"id":"10538","name":"Pasaj Victoria","latitude":"44.45255","longitude":"26.09126"},{"id":"10539","name":"Dr. Felix","latitude":"44.45217","longitude":"26.07995"},{"id":"10540","name":"Bd. Banu Manta","latitude":"44.45276","longitude":"26.0738"},{"id":"10541","name":"Pasaj Basarab","latitude":"44.44987","longitude":"26.06841"},{"id":"10542","name":"Pod Grozavesti","latitude":"44.44249","longitude":"26.06034"},{"id":"10543","name":"Bd. Iuliu Maniu","latitude":"44.43475","longitude":"26.05436"},{"id":"10544","name":"Bd.Timisoara","latitude":"44.42901","longitude":"26.05445"},{"id":"10545","name":"Piata Danny Huwe","latitude":"44.42854","longitude":"26.0621"},{"id":"10546","name":"APRODEX","latitude":"44.42539","longitude":"26.06595"},{"id":"10547","name":"Calea 13 Septembrie","latitude":"44.42251","longitude":"26.06964"},{"id":"10548","name":"Inox","latitude":"44.41869","longitude":"26.07472"},{"id":"10549","name":"Calea Rahovei","latitude":"44.4151","longitude":"26.07912"},{"id":"10550","name":"Spatarul Preda","latitude":"44.41154","longitude":"26.08339"},{"id":"10551","name":"Sos.Viilor","latitude":"44.41095","longitude":"26.08841"},{"id":"10552","name":"Stefan Hepites","latitude":"44.4077","longitude":"26.09194"},{"id":"10553","name":"Piata Eroii Revolutiei","latitude":"44.40568","longitude":"26.09535"},{"id":"10511","name":"Cimitirul Serban Voda","latitude":"44.40172","longitude":"26.09883"},{"id":"10464","name":"Sura Mare","latitude":"44.4011907853","longitude":"26.0981879128"}]}]}