{"status":"ok"
,"data":[
{"id":"1116",
"name":"Piata Presei - Ghencea",
"geometry":"qtmnG}bc~CDVJVdAX\\j@Zp@`@Hd@GnCaA??vKiEjBw@TI??bNsFjDqAnOiGf@Kf@@^Jd@`@|E|ElAzAdDtER^R^|@z@`Ax@??bMtLb@h@^Xl@r@jAbBpAfC`AdC~@xC`AhDfEpOrBxHrBrH^jBb@bDTxC\\bJRfF??NjD@rA@n@\\hG\\jFL|B@l@R`CHf@Np@Tj@Zn@bAdB^x@p@hAdAbBrFhJ??vBvDlAlCzG`Rd@jA\\f@b@^h@XdFvB\\RbCxApEpDtD|C|AnAzAz@vA`@p@H|@Fl@@??xBDdAHdABtFHrJVlCJh@ApHn@bWfDjIzA`B^dB`@rCb@N@d@MrCq@dBi@tB_@hA[p@SzD_Ah@K`BKvEIjCIlA?dJPfEJp@@`F]??~AMhDg@fDk@b@SLMPqAc@qH}By][sGIiD@eDA[HSTM^GXCRUEeC","color":"901939",
"direction":"0",
"duration":"00:40",
"stops":[{"id":"10925","name":"Piata Presei","latitude":"44.4757882824","longitude":"26.0717627895"},{"id":"10926","name":"Agronomie","latitude":"44.4716","longitude":"26.07238"},{"id":"10927","name":"Casin","latitude":"44.4678638941","longitude":"26.0741982353"},{"id":"10928","name":"Bd. Ion Mihalache","latitude":"44.46176","longitude":"26.07212"},{"id":"10929","name":"Pasaj Grant","latitude":"44.45695","longitude":"26.066"},{"id":"10930","name":"Sos. Crangasi","latitude":"44.4537","longitude":"26.0522"},{"id":"10931","name":"Piata Crangasi","latitude":"44.45217","longitude":"26.04702"},{"id":"10932","name":"Pod Ciurel","latitude":"44.44583","longitude":"26.03826"},{"id":"10933","name":"Orsova","latitude":"44.44025","longitude":"26.03532"},{"id":"10934","name":"Bd. Uverturii","latitude":"44.43659","longitude":"26.0351"},{"id":"10935","name":"Bd. Timisoara","latitude":"44.42678","longitude":"26.03325"},{"id":"10936","name":"Drumul Taberei","latitude":"44.42241","longitude":"26.03442"},{"id":"10937","name":"Tricodava","latitude":"44.4174849525","longitude":"26.0343727959"},{"id":"10938","name":"Brasov","latitude":"44.41452","longitude":"26.03499"},{"id":"10939","name":"Ghencea","latitude":"44.4146188570418","longitude":"26.0462061655998"}]},

{"id":"1115",
"name":"Ghencea - Piata Presei",
"geometry":"qyanGec~}CDxA@ZC\\IXCX?xBDnDDtAFtAp@lK|AlVb@bH@VGZ]PkAT??cEx@{CZuEZ{@@{DGaDA??cFK{AA{DB{@ByCP}@Jq@LgCn@iDn@iDx@wBb@oAV[JO?gCa@eEs@??mIyAeWiDiHk@iAKaBCyBCWAqL]cHK??yAEoAIu@Ss@Wq@[m@a@eLqJ}AkAw@g@SGqAm@{B_AyAk@_@Wi@o@s@eB_D}I??oBoF_AsBaKkQ{@cBcDoFc@mAOo@G_As@qLc@eJKmBs@sQMoDMeBUoB_@{BS_AuAiFkAmEw@uCeD{Lw@}Cc@}AkBmFc@cAwAyCkAgBy@cA[c@WQ_C{B?@eM}Lk@s@c@o@y@kAkAwA_AmA_BcBmDkD_@[MESES@UDsAf@eLpEoAb@oCjAkCdA{Al@??ePpGyIxDk@VYDKAMCOMKOKg@Uu@OsA","color":"901939",
"direction":"1",
"duration":"00:40",
"stops":[{"id":"10940","name":"Ghencea","latitude":"44.4151553027115","longitude":"26.0461096060753"},{"id":"10941","name":"Brasov","latitude":"44.41474","longitude":"26.03501"},{"id":"10942","name":"Tricodava","latitude":"44.41838","longitude":"26.03446"},{"id":"10943","name":"Drumul Taberei","latitude":"44.42268","longitude":"26.03449"},{"id":"10944","name":"Bd. Timisoara","latitude":"44.4271","longitude":"26.03324"},{"id":"10945","name":"Bd. Uverturii","latitude":"44.43684","longitude":"26.03519"},{"id":"10946","name":"Orsova","latitude":"44.44011","longitude":"26.0354"},{"id":"10947","name":"Pod Ciurel","latitude":"44.44599","longitude":"26.03845"},{"id":"10948","name":"Piata Crangasi","latitude":"44.45227","longitude":"26.04725"},{"id":"10949","name":"Pasaj Grant","latitude":"44.4537051909385","longitude":"26.0529546034813"},{"id":"10950","name":"Turda","latitude":"44.45687","longitude":"26.06591"},{"id":"10951","name":"Bd. Ion Mihalache","latitude":"44.46255","longitude":"26.0732"},{"id":"10952","name":"Casin","latitude":"44.4683079731","longitude":"26.0740587605"},{"id":"10953","name":"Agronomie","latitude":"44.47182","longitude":"26.07233"},{"id":"10954","name":"Piata Presei","latitude":"44.4753591887","longitude":"26.0719666374"}]}
]}