{"status":"ok","data":[{"id":"1622","name":"Romana - Baneasa","geometry":"yzgnGach~C?H_C|@KSMKIsAA{E@sADmA?OWFi@BeD@}@?uA@c@B??oSpBmCPsAb@}Ah@cAd@_EzAwAn@oGtDsQbKeCtAkCbBgEzCCB??iA`AcAhAc@l@y@lAc@x@m@dA{@tB_HbQ_@t@QLMFo@NWDURs@ZO@e@Ew_@uFu@KIG[]_@Y]Qi@a@OQe@s@a@iAY}@gAmDWk@UYGIi@[??c@YYSUYqBeCoA}Ac@Ug@C_KZmBFw@WsNd@wMb@}N`@wBHKA?BUBIA[[SS_@j@a@^a@P}GbBiBt@eAp@c@`@k@v@sHvKuAvBuAhCeBvEQt@OdBiA~Q??e@hIYxBM^S`@QRQNmDF[?G[Uc@YUYKA???e@Ee@Jm@\\W?g@GWFqAOuAIeUoDy@c@oBg@_GqAcFgAuA]KSQIU@MJi@Ew@K}AS??}Fq@{@Cs@BgAHcAN{Ar@mA^iCXgD|@sC~@aHlBEAq@aBqAsH??m@sDLMHQ@UCWKOMGKAOFKPEPoLsA\\{G??pHq{Aj@eLe@eIIoA?iAd@uQHwDPsHt@qYD}B","color":"2F91C9","direction":"0","duration":"00:35","stops":[{"id":"11717","name":"Piata Romana","latitude":"44.44621","longitude":"26.09731"},{"id":"16057","name":"A.S.E.","latitude":"44.44736","longitude":"26.09948"},{"id":"11718","name":"Perla","latitude":"44.4536676647","longitude":"26.0985097778"},{"id":"11719","name":"Liceul I.L.Caragiale","latitude":"44.458185961","longitude":"26.0957417381"},{"id":"11720","name":"Piata Dorobantilor","latitude":"44.4610192905","longitude":"26.0938427341"},{"id":"11721","name":"Piata Charles de Gaulle","latitude":"44.4652843408","longitude":"26.0881028069"},{"id":"14032","name":"Parc Herastrau","latitude":"44.47315","longitude":"26.08868"},{"id":"11477","name":"Nicolae Caramfil","latitude":"44.47945","longitude":"26.09254"},{"id":"11478","name":"Pasaj Aviatiei","latitude":"44.48457","longitude":"26.09223"},{"id":"11479","name":"Apicola","latitude":"44.49273783","longitude":"26.0877187145"},{"id":"11480","name":"Piata Baneasa","latitude":"44.49403","longitude":"26.0835"},{"id":"11727","name":"Aeroport Baneasa","latitude":"44.4963","longitude":"26.07984"},{"id":"11925","name":"Drumul Matasii","latitude":"44.50694","longitude":"26.08225"},{"id":"11926","name":"Institutul Meteorologic","latitude":"44.51281","longitude":"26.08103"},{"id":"14034","name":"Ambasada SUA","latitude":"44.51466","longitude":"26.08325"},{"id":"11928","name":"Padurea Baneasa","latitude":"44.5168606332","longitude":"26.0869548214"},{"id":"11929","name":"Restaurant Baneasa","latitude":"44.516309821","longitude":"26.0923085106"},{"id":"11930","name":"Gradina Zoologica","latitude":"44.515368838","longitude":"26.1034021271"},{"id":"11931","name":"Microelectronica","latitude":"44.5152234816","longitude":"26.1090562237"},{"id":"11907","name":"Jolie Ville Baneasa","latitude":"44.515062824","longitude":"26.1151716602"}]},{"id":"1623","name":"Baneasa - Romana","geometry":"{iunGwrk~CC?C|@V`@FHAVSzHIhDMzE??a@lPg@jS?hAHnAd@dIQvD??_In_Bi@jKjEf@??bFj@?NFZTNL@DAh@`Db@jC??p@xDRnBITANBVJPNHNAHEhAi@tK{C|Ae@|CuA?AvAa@dCi@v@I~@CrADr@HfJfA`BX`ShE|J`B??bLfBpBj@tATbEn@t@HpA@tBCTIREPM^c@LQDOD}@^}Fn@_K??h@qHNuCJgAT_AjA{Cv@cBzAeCzHeLdA}A`@a@tA{@tAe@tFuA??lA]zA_@jAKjBMvNc@tMc@fEMnCKrB?`EM??`L]b@L`@\\fEjF|@l@h@ZFHTXJRrAdEX|@`@hA^fBP`@Xb@Z^XPL?HELGLAJ?lEp@?AnZnEx@PPRh@~@RTVHZCRMPWJa@HgAPy@lD}I??rCiHz@oBz@cBn@aAxAoBjAkAnB}AlBqAfCaBjBoA??vMwH??rJuFhCuApCeAjFoBlAa@tBWfCWjD]dFg@j@G??nBQxCA|D@vCo@|AW??r@MJBRE~@r@x@|@jBzB??x@bAaBj@eC`AmDvA","color":"2F91C9","direction":"1","duration":"00:35","stops":[{"id":"11907","name":"Jolie Ville Baneasa","latitude":"44.515062824","longitude":"26.1151716602"},{"id":"11908","name":"Microelectronica","latitude":"44.5153611877","longitude":"26.10844468"},{"id":"11909","name":"Gradina Zoologica","latitude":"44.5154376909","longitude":"26.1031660927"},{"id":"11910","name":"Restaurant Baneasa","latitude":"44.5164628249","longitude":"26.0919866455"},{"id":"11911","name":"Padurea Baneasa","latitude":"44.5170289359","longitude":"26.0862574471"},{"id":"11912","name":"Academia de Politie","latitude":"44.5169141841","longitude":"26.0840258492"},{"id":"11913","name":"Ambasada SUA","latitude":"44.5147338572","longitude":"26.0831246269"},{"id":"11914","name":"Institutul Meteorologic","latitude":"44.51309","longitude":"26.08032"},{"id":"11915","name":"Drumul Matasii","latitude":"44.5068227931","longitude":"26.0816762341"},{"id":"11729","name":"Aeroport Baneasa","latitude":"44.4958579971","longitude":"26.0787794483"},{"id":"11512","name":"Soseaua Bucuresti-Ploiesti","latitude":"44.4942531638","longitude":"26.0803050888"},{"id":"11513","name":"Piata Baneasa","latitude":"44.4938628543","longitude":"26.0835344685"},{"id":"11514","name":"Apicola","latitude":"44.49182","longitude":"26.08849"},{"id":"11515","name":"Carutasilor","latitude":"44.48346","longitude":"26.09217"},{"id":"14035","name":"Soseaua Pipera","latitude":"44.47967","longitude":"26.0924"},{"id":"14033","name":"Parc Herastrau","latitude":"44.47338","longitude":"26.08878"},{"id":"11735","name":"Piata Charles de Gaulle","latitude":"44.4653149684","longitude":"26.0874912632"},{"id":"11736","name":"Piata Dorobantilor","latitude":"44.4597557957","longitude":"26.0944757355"},{"id":"11737","name":"Liceul I.L. Caragiale","latitude":"44.4572670138","longitude":"26.0961387051"},{"id":"11738","name":"Soseaua Stefan cel Mare","latitude":"44.45391","longitude":"26.09804"},{"id":"11739","name":"A.S.E.","latitude":"44.44774","longitude":"26.09933"},{"id":"11717","name":"Piata Romana","latitude":"44.44621","longitude":"26.09731"}]}]}