{"status":"ok","data":[{"id":"1134","name":"Dridu - Sfintii Voievoizi","geometry":"y`onGe_`~CC?RdEKrAMj@Mh@AZFjAZ|Fb@pIt@fIj@`ERbApB|GpAnE`DpKHVbEwC~EuD??lHkFh@e@nDeCnGqEzHsFjDeCTSdJ{Gt]{Vjo@wd@x@m@`A{@bBoA|ByAbCuBjByB`AwAxFaKbLmS`@_AvIkV|BuGNg@t@}Cl@mBx@uC??x@eDa@WEI}@oF??yAoI{@wEZkB~AuJn@_E?]DyFEk@XSBE","color":"2F91C9","direction":"0","duration":"00:25","stops":[{"id":"11053","name":"Dridu","latitude":"44.4828688298","longitude":"26.0557875526"},{"id":"11054","name":"Faurei","latitude":"44.4827616654","longitude":"26.0515067471"},{"id":"11055","name":"Piata Pajurei","latitude":"44.482233495","longitude":"26.0479340446"},{"id":"11056","name":"Pajurei","latitude":"44.47981","longitude":"26.04304"},{"id":"11057","name":"Soseaua Chitilei","latitude":"44.4773266397","longitude":"26.0450479877"},{"id":"11058","name":"Carpati","latitude":"44.47285","longitude":"26.04846"},{"id":"11059","name":"Clabucet","latitude":"44.4704980754","longitude":"26.0503802193"},{"id":"11060","name":"Registrul Auto Roman","latitude":"44.4679481162","longitude":"26.0524079693"},{"id":"11061","name":"Lainici","latitude":"44.46559","longitude":"26.05421"},{"id":"11062","name":"Kiev","latitude":"44.4637062319","longitude":"26.0557124508"},{"id":"11063","name":"Griro","latitude":"44.4613324798","longitude":"26.0575685394"},{"id":"11064","name":"Caraiman","latitude":"44.4594793547","longitude":"26.0590062035"},{"id":"11065","name":"Cimitirul Sfanta Vineri","latitude":"44.4581698795","longitude":"26.0600254429"},{"id":"11066","name":"Pasaj Grant","latitude":"44.4557346372","longitude":"26.0619244469"},{"id":"11067","name":"Stoica Ludescu","latitude":"44.45275","longitude":"26.06548"},{"id":"11068","name":"Soseaua Nicolae Titulescu","latitude":"44.44991","longitude":"26.07004"},{"id":"11069","name":"Gara de Nord","latitude":"44.44806","longitude":"26.07416"},{"id":"11070","name":"Polizu","latitude":"44.4470879406","longitude":"26.0782537354"},{"id":"11071","name":"Piata Buzesti","latitude":"44.44795","longitude":"26.08153"},{"id":"11072","name":"Sfintii Voievozi","latitude":"44.4471032591","longitude":"26.0868797195"}]},{"id":"1133","name":"Sfintii Voievoizi - Dridu","geometry":"eahnGcdf~CA?EIIHe@b@Vr@Dj@ExF?\\o@~Da@dC??}@nF[jBz@vE`@zBV|A??|AdJDHLHa@fBu@vCk@hBs@nCc@fBuFzOcFpNc@|@aHhMyBzD??gD`GmCnEsA`BmAlAw@p@iBnAs@^_BrAeA~@mAx@qCrBeQdMuF~DyLtIsX~ReNzJiCbBmE|CqOdLeIzFuA|@iDhC{EfDcEvCiA{DwCwJwBkHQw@??I_@k@aEu@gI_AoQGkA@[Li@Lk@JsAK{BZGb@G","color":"2F91C9","direction":"1","duration":"00:25","stops":[{"id":"11073","name":"Sfintii Voievoizi","latitude":"44.4471109184","longitude":"26.0872123135"},{"id":"11074","name":"Piata Buzesti","latitude":"44.44783","longitude":"26.08294"},{"id":"11075","name":"Calea Grivitei","latitude":"44.447088323559","longitude":"26.0778782260895"},{"id":"11076","name":"Gara de Nord","latitude":"44.4482674591","longitude":"26.074284066"},{"id":"11077","name":"Nicolae Titulescu","latitude":"44.4506647188","longitude":"26.069048394"},{"id":"11078","name":"Stoica Ludescu","latitude":"44.4532460668","longitude":"26.0650443924"},{"id":"11079","name":"Pasaj Grant","latitude":"44.45628","longitude":"26.06183"},{"id":"11080","name":"Cimitirul Sfanta Vineri","latitude":"44.4579171704","longitude":"26.060411681"},{"id":"11081","name":"Caraiman","latitude":"44.46012","longitude":"26.05878"},{"id":"11082","name":"Griro","latitude":"44.46184","longitude":"26.0574"},{"id":"11083","name":"Kiev","latitude":"44.4644106817","longitude":"26.055369128"},{"id":"11084","name":"Lainici","latitude":"44.46619","longitude":"26.05404"},{"id":"11085","name":"Registrul Auto Roman","latitude":"44.46845","longitude":"26.05225"},{"id":"11086","name":"Clabucet","latitude":"44.47064","longitude":"26.05058"},{"id":"11087","name":"Carpati","latitude":"44.47315","longitude":"26.04864"},{"id":"11088","name":"Depoul Bucurestii Noi","latitude":"44.47787","longitude":"26.04495"},{"id":"11089","name":"Pajurei","latitude":"44.480396726","longitude":"26.0435566795"},{"id":"11090","name":"Piata Pajurei","latitude":"44.4822641137","longitude":"26.0485348595"},{"id":"11091","name":"Faurei","latitude":"44.4827387016","longitude":"26.0520646465"},{"id":"11092","name":"Dridu","latitude":"44.482547336","longitude":"26.0553905857"}]}]}