{"status":"ok","data":[{"id":"1640","name":"Faur - Piata Presei","geometry":"w_dnGqax~C??h@EVB`@Lh@b@`CzBxClCt@~AJ^Dd@?j@]nDYbCq@~CcAzFm@lDMx@@TPnAFj@Bf@k@vEQtA??ShBMtBGjD@bDL`Dr@nKl@tIbCf^JbB??jC`_@RhATv@J\\`@v@T\\\\`@r@h@`An@zHbFtFpDhDzBtBrAcAjFk@rDaAbGaA~FwAdJaAhGk@vCa@lCC`@E?_AI{D_@oHu@??aDYcBMs@MqBKwAC{@O_AW_GmBeAe@aCu@wBk@cCa@sBIgBNwA^{CfAmIzC}Bv@??mCl@wA`@aBd@kF|AkAb@oKtGoCbBgBpB_AdA_@r@q@lAwExJgEjIk@bAcAfBoAbB}@~@}ErDu@b@_@R{@X{@NgA^_B^y@ZmBlA}A`BqBxBk@d@mBrCeAfB{A~Cc@fBg@`CCN??w@zEcAhHUnD]nHc@vJOdHEhEGfMGnO?~HAtHCpOCnF?`EaBj@gDtAqDtAiCxAqBjA??qKfG{EjCcE~BgFjDyBdBkBlBgA|AsAzBy@jBsDfJkC|GYb@SLs@RG?[JQPO`@Ch@Dh@XlAFp@_AjO??cBfXK^g@r@S|@@RJx@Dj@[vB_BfKG`@[l@i@z@}@jAmAj@kEbBqDvA??kOfGwDxAS?i@EIKOIQUOa@MeA","color":"2F91C9","direction":"0","duration":"00:40","stops":[{"id":"11316","name":"Faur Poarta 4","latitude":"44.42641","longitude":"26.17896"},{"id":"14180","name":"Liviu Rebreanu","latitude":"44.4239","longitude":"26.17618"},{"id":"14181","name":"Barajul Dunarii","latitude":"44.42495","longitude":"26.17188"},{"id":"11279","name":"Barajul Dunarii","latitude":"44.4250633356","longitude":"26.1699316395"},{"id":"14144","name":"Liviu Rebreanu","latitude":"44.42487","longitude":"26.16214"},{"id":"14145","name":"Pod Lacuri","latitude":"44.42435","longitude":"26.15769"},{"id":"14183","name":"Soseaua Campia Libertatii","latitude":"44.42285","longitude":"26.14997"},{"id":"14185","name":"Liviu Rebreanu","latitude":"44.4181","longitude":"26.14544"},{"id":"14187","name":"Dristorului","latitude":"44.41983","longitude":"26.13859"},{"id":"11789","name":"Baba Novac","latitude":"44.4251629438","longitude":"26.1377129448"},{"id":"11790","name":"Gheorghe Petrascu","latitude":"44.4284345958","longitude":"26.1388609303"},{"id":"11408","name":"Maior Coravu","latitude":"44.43573","longitude":"26.13738"},{"id":"14189","name":"Piata Iancului","latitude":"44.44165","longitude":"26.13298"},{"id":"11329","name":"Mihai Bravu 33","latitude":"44.44587","longitude":"26.12707"},{"id":"15237","name":"Bucur Obor","latitude":"44.44843","longitude":"26.12599"},{"id":"14190","name":"Lizeanu","latitude":"44.45232","longitude":"26.11898"},{"id":"14192","name":"Doctor Grozovici","latitude":"44.45285","longitude":"26.11441"},{"id":"14194","name":"Vasile Lascar","latitude":"44.45301","longitude":"26.11086"},{"id":"11718","name":"Perla","latitude":"44.4536676647","longitude":"26.0985097778"},{"id":"11719","name":"Liceul I.L.Caragiale","latitude":"44.458185961","longitude":"26.0957417381"},{"id":"11720","name":"Piata Dorobantilor","latitude":"44.4610192905","longitude":"26.0938427341"},{"id":"11721","name":"Piata Charles de Gaulle","latitude":"44.4652843408","longitude":"26.0881028069"},{"id":"12106","name":"Arcul de Triumf","latitude":"44.4675806005484","longitude":"26.0769383800506"},{"id":"14196","name":"Institutul Agronomic","latitude":"44.47215","longitude":"26.07221"},{"id":"11431","name":"Piata Presei","latitude":"44.4751984212","longitude":"26.0717091454"}]},{"id":"1641","name":"Piata Presei - Faur","geometry":"atmnGogc~CE?\\dDl@BFf@@\\WCcBUy@U]O{EaCCO@gA@]FQvGmC??zf@}R??|KmEZEf@@VCNOJW@US{CfBkYHgA?Al@iJ??Fo@L_@x@aBFa@LqAT{@rBaF??|E_MfAaCl@cA|AwBl@s@hBaBrBwAjBoAxDgC??rR_LjHeE??rB{@dBq@xFuBb@OCgMF{TAaFDkUPoXf@iLFsB??^mI\\kDj@qDlAsHr@eDVcANo@Vm@jAaCt@iAz@{@`HyG~@aAh@]|@a@r@Wx@UbB[`By@tAy@`CgBb@a@hBmBb@_@f@s@vA{Bh@cAdA}BXm@??fBuDrC_Gl@cA|@_BfAaBxAcBzByA`F{CdEgC|H_CvDeAvCiAbMiDdFgBtASdAGl@@pAHn@LdBf@lJzC??vC`A`AT|AXVDjCLT?PAbAAvAH~D^zHv@??~ARlARv@cFpA}Hl@_DbB}JjAiHv@uE^}B??p@qD]y@m@e@eHsEyP}Ka@[w@}@Ya@Si@Yw@Kc@KcAg@sGeAiOOaCs@aKOwB??sAoSu@kKm@yIMiCEwB?eCDaBNkB\\cDn@kF@c@Eg@S}AC_@@Wb@sC`@iCb@cCz@{Dl@}C|@{G@ID]gBwA}AsAoAgAeDwC_@WGGGIKISUm@{@??e@q@SSSIK@IBIPUt@","color":"2F91C9","direction":"1","duration":"00:40","stops":[{"id":"11920","name":"Piata Presei","latitude":"44.475749622","longitude":"26.0724279774"},{"id":"11733","name":"Muzeul Satului","latitude":"44.471830625","longitude":"26.0755607975"},{"id":"11734","name":"Arcul de Triumf","latitude":"44.4669305515","longitude":"26.0794124496"},{"id":"11735","name":"Piata Charles de Gaulle","latitude":"44.4653149684","longitude":"26.0874912632"},{"id":"11736","name":"Piata Dorobantilor","latitude":"44.4597557957","longitude":"26.0944757355"},{"id":"11737","name":"Liceul I.L. Caragiale","latitude":"44.4572670138","longitude":"26.0961387051"},{"id":"11738","name":"Soseaua Stefan cel Mare","latitude":"44.45391","longitude":"26.09804"},{"id":"14195","name":"Vasile Lascar","latitude":"44.45273","longitude":"26.1123"},{"id":"14193","name":"Doctor Grozovici","latitude":"44.45244","longitude":"26.11621"},{"id":"14191","name":"Lizeanu","latitude":"44.4522","longitude":"26.11828"},{"id":"15238","name":"Bucur Obor ","latitude":"44.44803","longitude":"26.12557"},{"id":"11301","name":"Mihai Bravu 88","latitude":"44.44507","longitude":"26.12734"},{"id":"11783","name":"Piata Iancului","latitude":"44.4401635334","longitude":"26.1343655479"},{"id":"11380","name":"Vatra Luminoasa","latitude":"44.4369001986","longitude":"26.136457671"},{"id":"11784","name":"Gheorghe Petrascu","latitude":"44.4283817298","longitude":"26.1384639633"},{"id":"11785","name":"Baba Novac","latitude":"44.4255460507","longitude":"26.1373267067"},{"id":"12030","name":"Calea Dudesti","latitude":"44.41973","longitude":"26.13814"},{"id":"14188","name":"Dristorului","latitude":"44.41911","longitude":"26.14056"},{"id":"14186","name":"Ramnicu Sarat","latitude":"44.41831","longitude":"26.14688"},{"id":"14184","name":"Soseaua Campia Libertatii","latitude":"44.42335","longitude":"26.15161"},{"id":"14146","name":"Pod Lacuri","latitude":"44.42425","longitude":"26.15885"},{"id":"11282","name":"Liviu Rebreanu","latitude":"44.4250326869","longitude":"26.1643741024"},{"id":"11283","name":"Barajul Dunarii","latitude":"44.424802821","longitude":"26.1700389278"},{"id":"14182","name":"Barajul Dunarii","latitude":"44.42478","longitude":"26.17212"},{"id":"11314","name":"Liviu Rebreanu","latitude":"44.4238009785","longitude":"26.1774310959"},{"id":"11315","name":"Faur Poarta 4","latitude":"44.42715","longitude":"26.17964"}]}]}