{"status":"ok","data":[{"id":"1624","name":"Ghencea - Cartier","geometry":"axanGea~}CCCQ`@@H@FBBu@`@@a@EaBQiFAk@u@kOEk@{BwKsB}J??gEiSwA_HlBJV@fAM`@IRITMpBiBfAqAbBeBV]vB}Er@NrAf@tAd@??zYlJbPfFjEvAbF|Ab@FLC~@o@??VUh@e@dBzFPh@zDpMjA|D??|@rC~C|LVnBNz@Lf@h@nAx@hARXjA`EbBjFj@fB?b@Aj@GT?NDLLLH?z@nAz@tC??tB~Gt@tB`AjDx@~Cp@fDhCpN`E|TvGp^PbA??|B~LbDzQ|AdIhB~Jz@pE??fHh`@nBfKEDAT@BkJtG??wBzAfDrQ","color":"2F91C9","direction":"0","duration":"00:20","stops":[{"id":"11715","name":"Ghencea","latitude":"44.4149100710411","longitude":"26.0458848369598"},{"id":"11626","name":"Cimitirul Ghencea","latitude":"44.41596","longitude":"26.05144"},{"id":"11868","name":"Calea 13 Septembrie","latitude":"44.4178991453","longitude":"26.0588238132"},{"id":"11869","name":"Margeanului","latitude":"44.4138758717","longitude":"26.0613129032"},{"id":"11870","name":"Complex Comercial","latitude":"44.4113464319","longitude":"26.0602078331"},{"id":"14041","name":"Buzoieni","latitude":"44.4074","longitude":"26.05862"},{"id":"12177","name":"Teius","latitude":"44.40283","longitude":"26.05615"},{"id":"12178","name":"Antiaeriana","latitude":"44.40067","longitude":"26.05062"},{"id":"11262","name":"Depul Alexandria","latitude":"44.39842","longitude":"26.04435"},{"id":"14042","name":"Teiului","latitude":"44.39497","longitude":"26.035"},{"id":"14043","name":"Penitenciarul Rahova","latitude":"44.39407","longitude":"26.03175"},{"id":"14044","name":"Albotesti","latitude":"44.39322","longitude":"26.02868"},{"id":"14045","name":"Gladiolelor","latitude":"44.3922","longitude":"26.02502"},{"id":"14046","name":"Celofibrei","latitude":"44.39058","longitude":"26.01912"},{"id":"14048","name":"Campului","latitude":"44.38842","longitude":"26.01133"},{"id":"14050","name":"Cartier Fortuna","latitude":"44.38983","longitude":"26.00572"}]},{"id":"1625","name":"Cartier - Ghencea","geometry":"i{|mGkfv}C_DiQA?fNuJ@DDDF?FADUEQMCC@s@wDCK??wIke@{B}LgBkJCO??cEcUkAqGcEgUqHka@oByK??}AsIsAqFaAkDa@gAY}@kDeLSkAQ_@?OCOGIC_@Yk@k@gBmAsD??aByF[}BOaAUw@[aAk@kAyCmK??mFmQ}E}P[NaAz@y@j@??SFc@GcF}AkEwAcPgF_AY??qZyJcBk@??c@KwB|Eu@z@mCxCk@h@??qAfASJeBXo@A]CqAKUGPr@\\`B??~EpU??pCxMhBvIPfATzDZnGFdB??XdH","color":"2F91C9","direction":"1","duration":"00:20","stops":[{"id":"14050","name":"Cartier Fortuna","latitude":"44.38983","longitude":"26.00572"},{"id":"14049","name":"Campului","latitude":"44.38841","longitude":"26.01181"},{"id":"14047","name":"Celofibrei","latitude":"44.39042","longitude":"26.01882"},{"id":"14051","name":"Gladiolelor","latitude":"44.39224","longitude":"26.02603"},{"id":"14052","name":"Albotesti","latitude":"44.39335","longitude":"26.02955"},{"id":"14053","name":"Penitenciarul Rahova","latitude":"44.39406","longitude":"26.03212"},{"id":"14054","name":"Teiului","latitude":"44.39506","longitude":"26.03573"},{"id":"14055","name":"Depou Alexandria","latitude":"44.39926","longitude":"26.04744"},{"id":"12179","name":"Antiaeriana","latitude":"44.4004227168599","longitude":"26.0506076705932"},{"id":"14063","name":"Teius","latitude":"44.40367","longitude":"26.0578"},{"id":"11863","name":"Margeanului","latitude":"44.408081488","longitude":"26.0590276611"},{"id":"11864","name":"Complex Comercial","latitude":"44.4121358158","longitude":"26.0607550037"},{"id":"11865","name":"Petre Ispirescu","latitude":"44.4150403505","longitude":"26.0614201916"},{"id":"11605","name":"Petre Ispirescu","latitude":"44.4182167806","longitude":"26.05811571"},{"id":"11606","name":"Cimitirul Ghencea","latitude":"44.41603","longitude":"26.05111"},{"id":"11715","name":"Ghencea","latitude":"44.4149100710411","longitude":"26.0458848369598"}]}]}