{"status":"ok","data":[{"id":"1088","name":"Sf Gheorghe - Piata Baneasa","geometry":"yeenGili~CZETINa@Ci@?Ac@yHIw@W[m@a@i@g@??kAgAaC{AaBs@aA]sAgBaAsA{@eA[_DIm@_@uAcD`BqBtAy@d@cAb@s@ReAR??cAPiD|Aa@D_@@aAUyRwJaDaB??{CaBeAlJU\\AAMNg@Tk@rA_ApCo@R??i@JmARg@\\gCtAgCtA??yE`Cg@TsCfAiDlAqCjAe@@]Ji@VSDa@CqCm@_KwB??cLaCoK}BeIcBcEeAyH}AcZkG_Do@}@Ew@Ba@HaYxL[N??}IrDyAr@kAr@gBpAy@x@{@|@cBrBaCvD_DxEcGfIiFnI{QlYoAnBqCrFyBhE_@j@a@^a@P}GbBiBt@q@`@??i@b@c@f@yGvJwAtBsAxB{AfDq@jBSp@Kr@g@fH","color":"901939","direction":"0","duration":"00:37","stops":[{"id":"10576","name":"Piata Sf. Gheorghe","latitude":"44.43252","longitude":"26.10388"},{"id":"10577","name":"Hristo Botev","latitude":"44.4339431229","longitude":"26.1076400173"},{"id":"10578","name":"Bulevardul Carol I","latitude":"44.4368235924","longitude":"26.1103753341"},{"id":"10579","name":"Batistei","latitude":"44.4399184066","longitude":"26.1088631046"},{"id":"10580","name":"Maria Rosetti","latitude":"44.442101531","longitude":"26.1096570385"},{"id":"10581","name":"Piata Gemeni","latitude":"44.44519","longitude":"26.1115"},{"id":"10582","name":"Teatrul Metropolis","latitude":"44.4473177188","longitude":"26.1081013573"},{"id":"10583","name":"Sos. Stefan cel Mare","latitude":"44.4526483193","longitude":"26.1052260292"},{"id":"10584","name":"Bulevardul Lacul Tei","latitude":"44.45673","longitude":"26.10584"},{"id":"10585","name":"Rossini","latitude":"44.46013","longitude":"26.10692"},{"id":"10586","name":"Ceaikovski","latitude":"44.46438","longitude":"26.10823"},{"id":"10587","name":"Giuseppe Verdi","latitude":"44.46929","longitude":"26.10978"},{"id":"10588","name":"Muzeul Aviatiei","latitude":"44.47548","longitude":"26.10716"},{"id":"10589","name":"Soseaua Pipera","latitude":"44.47998","longitude":"26.10292"},{"id":"10590","name":"Maguricea","latitude":"44.48411","longitude":"26.09733"},{"id":"10591","name":"Pasaj Baneasa","latitude":"44.48605","longitude":"26.0946"},{"id":"15152","name":"Apicola","latitude":"44.49238","longitude":"26.08803"},{"id":"15154","name":"Piata Baneasa","latitude":"44.49393","longitude":"26.08392"}]},{"id":"1087","name":"Piata Baneasa - Sf Gheorghe","geometry":"_eqnGsre~CCABu@RmCL{@f@{ApA}Cr@qAvA_C|EeHzBeD^e@j@e@bB{@fIuBh@ONOz@mAz@eB`BaD??jBmDlEeHzC{EvBiDfDiFhDeFdEmGrDaFfBsCdEsGx@gA~@_AtAmA??zB{ArAs@bc@wQfAe@n@Oh@Eb@AxDr@bYfGvIfBhb@~IxH~AjH|AvCn@l@K^K^Qd@e@pCkAfDmA??nCcAjAg@jM_Hf@]lASbAUTIDOb@sAz@sBDMZOROZa@j@{ERqBD_@jCtAvCzAhHpDzAt@nG`D^L^FP?RA\\EvBcA??p@YhCe@r@Sd@SjAi@hCiBdAi@pAo@XbAHb@TlBJhAv@dAb@l@??`@h@rAfB`A\\`Br@`CzAtBnBl@`@VZLlBm@La@?","color":"901939","direction":"1","duration":"00:37","stops":[{"id":"15155","name":"Piata Baneasa","latitude":"44.49381","longitude":"26.08444"},{"id":"15153","name":"Apicola","latitude":"44.49246","longitude":"26.0878"},{"id":"10592","name":"Pasaj Baneasa","latitude":"44.4862750253","longitude":"26.094110955"},{"id":"10593","name":"Maguricea","latitude":"44.48448","longitude":"26.09666"},{"id":"10594","name":"Soseaua Pipera","latitude":"44.48041","longitude":"26.10227"},{"id":"10595","name":"Muzeul Aviatiei","latitude":"44.47575","longitude":"26.10691"},{"id":"10596","name":"Giuseppe Verdi","latitude":"44.4689","longitude":"26.10959"},{"id":"10597","name":"Ceaikovski","latitude":"44.46527","longitude":"26.10847"},{"id":"10598","name":"Rossini","latitude":"44.46047","longitude":"26.10698"},{"id":"10599","name":"Bulevardul Lacul Tei","latitude":"44.45731","longitude":"26.10597"},{"id":"10600","name":"Sos. Stefan cel Mare","latitude":"44.45361","longitude":"26.10483"},{"id":"10601","name":"Teatrul Metropolis","latitude":"44.44842","longitude":"26.10735"},{"id":"10602","name":"Piata Gemeni","latitude":"44.4450432577","longitude":"26.1112878216"},{"id":"10603","name":"Maria Rosetti","latitude":"44.4424236307","longitude":"26.1096784962"},{"id":"10604","name":"Batistei","latitude":"44.4401252324","longitude":"26.1085197819"},{"id":"10605","name":"Bulevardul Carol I","latitude":"44.4371683199","longitude":"26.1100432766"},{"id":"10606","name":"Hristo Botev","latitude":"44.4344104427","longitude":"26.107725848"},{"id":"10607","name":"Piata Sf. Gheorghe","latitude":"44.43277","longitude":"26.10564"}]}]}