{"status":"ok","data":[{"id":"1112","name":"Baicului - Platforma Pipera","geometry":"kahnG_dq~CCAeBtFm@tB{@pCCH_@|AGdAL`Bx@tCxEtNjCjI??BD??w@lA[b@}A|Bm@|@mBrCi@r@??_Av@kBvA??g@^iG|EmGxEaAr@e@d@a@\\aChBe@`@??WT??Of@RL??bC~A??GVmAhEc@nAO\\??D@kAd@_AbDoEzO]bAyAH@V??eBj@q@R_Ct@{Dr@c@FaCb@??YDsB^yAXiH~A@?k@L??Us@q@kC??_BmG}@eDQq@i@oBy@}Ca@{AMa@sAgFo@eCiFyEmDSwCM@B_@@i@Ha@Lk@Z_GvDCB??y@l@qDjCeC`Bk@T]Jq@R??wDfAoCn@w@No@B??m@EIA??[G_@Kc@Q??o@c@wCiC{@i@i@M????o@GyKY??a@A_Lc@??_HY@?K????T]zPC~AGhC?@CnABv@D^HZbAxE`@jBt@lDlAnFlBtI??`BrHDLJb@hAdFl@pC","color":"901939","direction":"0","duration":"00:25","stops":[{"id":"11113","name":"Baicului","latitude":"44.4471802349","longitude":"26.1435488952"},{"id":"11111","name":"Gara Obor","latitude":"44.4482597999","longitude":"26.1405882729"},{"id":"11110","name":"Soseaua Pantelimon","latitude":"44.44664","longitude":"26.136"},{"id":"10884","name":"Piata Obor","latitude":"44.44892","longitude":"26.13153"},{"id":"10885","name":"Sos. Colentina","latitude":"44.45333","longitude":"26.12798"},{"id":"10886","name":"Turmelor","latitude":"44.45295","longitude":"26.12655"},{"id":"10887","name":"Maica Domnului","latitude":"44.4552506398","longitude":"26.121598233"},{"id":"10730","name":"Alexandru cel Bun","latitude":"44.4589050271","longitude":"26.1200854671"},{"id":"10731","name":"Bd. Lacul Tei","latitude":"44.46156","longitude":"26.11928"},{"id":"10732","name":"Teiul Doamnei","latitude":"44.46421","longitude":"26.12572"},{"id":"10733","name":"Lacul Tei","latitude":"44.46652","longitude":"26.12727"},{"id":"10734","name":"Strandul Tei","latitude":"44.47181","longitude":"26.12444"},{"id":"10735","name":"Sos. Fabrica de Glucoza","latitude":"44.47852","longitude":"26.12528"},{"id":"10736","name":"Gelcap","latitude":"44.48225","longitude":"26.12471"},{"id":"10737","name":"Rocin","latitude":"44.48232","longitude":"26.12194"},{"id":"10738","name":"Electronica","latitude":"44.48065","longitude":"26.11555"},{"id":"10739","name":"Platforma Ind. Pipera","latitude":"44.47962","longitude":"26.11129"}]},{"id":"1111","name":"Platforma Pipera - Baicului","geometry":"sknnGkwj~C`@k@A?ESYwAe@uB?@Ic@iAeFKc@EMwAuG?@I_@mBuImAoFYwA?@[wAa@kBcAyEI[E_@Cw@@q@??HiDB_BP{I?@JaF?U??F???|Ld@@?`FR@?\\BzLZn@Fh@Lz@h@xApA@?z@v@n@b@??b@P^Jd@Hl@D??n@Cv@OnCo@~Ae@??hCu@\\Kj@UdCaBpDkC??|@q@~FwDj@[`@Mh@If@AL?vAHjDJ^A@DRLx@r@`@^?@NNrB`CHR?@FNZfArAfFL`@`@zA@D?@v@tCh@nBPp@|@dDb@dB?@z@dDp@jCBF?@Ph@??tHcB??\\IxAYlAU@?b@IzCi@b@GzDs@~Bu@XI??VIpAc@lBk@jE{O@?lAkERYZOXIJM??B@@?EA??N]b@oAlAiEFW??B@k@yACB{AaA??@C??z@s@`CiB`@]d@e@f@_@??XSlGyEdBsA??bDiCb@]tDsCzIsMT_@rAsBLST]TW|AmBNk@PmBvAgXA?HaB??SAi@G??cAKWCMCKIw@}Aq@sA_@q@qAaCu@wACC","color":"901939","direction":"1","duration":"00:25","stops":[{"id":"10740","name":"Platforma Ind. Pipera","latitude":"44.4795007107","longitude":"26.1106977356"},{"id":"10741","name":"Electronica","latitude":"44.48049","longitude":"26.11519"},{"id":"10742","name":"Rocin","latitude":"44.48238","longitude":"26.1216"},{"id":"10743","name":"Gelcap","latitude":"44.48217","longitude":"26.12476"},{"id":"10744","name":"Sos. Fabrica de Glucoza","latitude":"44.47885","longitude":"26.12522"},{"id":"10745","name":"Strandul Tei","latitude":"44.47194","longitude":"26.12427"},{"id":"10746","name":"Lacul Tei","latitude":"44.4667077415","longitude":"26.1271557701"},{"id":"10747","name":"Bd. Lacul Tei","latitude":"44.46451","longitude":"26.12593"},{"id":"10748","name":"Grigore Moisil","latitude":"44.46195","longitude":"26.11936"},{"id":"10749","name":"Alexandru cel Bun","latitude":"44.4593262012","longitude":"26.1198065174"},{"id":"10750","name":"Reinvierii","latitude":"44.4554512848","longitude":"26.1211047066"},{"id":"10888","name":"Soseaua Colentina","latitude":"44.4528152757","longitude":"26.1267158878"},{"id":"10889","name":"Halele Obor","latitude":"44.4519575132","longitude":"26.1288938416"},{"id":"10890","name":"Piata Obor","latitude":"44.44903","longitude":"26.13136"},{"id":"10891","name":"Bd. Ferdinand","latitude":"44.4463817499","longitude":"26.1345264805"},{"id":"10706","name":"Cimitirul Armenesc","latitude":"44.44445","longitude":"26.14096"},{"id":"11112","name":"Baicului","latitude":"44.4467896105","longitude":"26.1436776412"}]}]}