{"status":"ok","data":[{"id":"1678","name":"Piata Unirii - Turnu Magurele","geometry":"ufdnGkli~CACgCHi@R[Lq@\\URKTKvA_@`FrAnBHHr@HtFRl@D|@?rABRCHCFg@RkBDqA??L_IN_CL{JLaET{ANa@`@_AT_@v@_AnAi@`D{@pC{@jF}AfKqChA]r@c@f@a@nAmAnBwB??tEeFl@vAzA`DXr@VhAHlADnBXxLDdB??Bx@LpATn@rEtI~@`BrAeANSJGvBsAz@k@t@w@d@y@b@}@To@d@{AdAoD??pD{L|@mCd@gA`@{@l@eA\\s@`A}Br@{BPm@XaBVmBHyALiGBiF@iAFq@NcBHc@PgAXeAVm@l@w@PSf@c@j@YRUFKFSrC?xKPdHHhDD??fe@p@bEJ|@Db@Fd@RV@dB]t@Iz@B~@?z@^`EzB`Aj@bBpA`BjB`BvBV`@FBLB~BF\\HjAb@bDfB??hFrCzJhFn@R\\FjALf@@bAEv@Mp@Wz@a@VM`Ao@`A{@nKaKvEgElBeBn@W~@[VKRSTq@n@oADAdHmCbG}BnFsB??bf@yQxD{AtBe@PJRCJOFS?WGWGK[[w@}AiDsLuGeUtG{El@OjCkBr^eWpBwA@UGOYKUN","color":"2F91C9","direction":"0","duration":"00:25","stops":[{"id":"15253","name":"Piata Unirii 4","latitude":"44.42747","longitude":"26.10408"},{"id":"11400","name":"Piata Unirii 1","latitude":"44.42758","longitude":"26.10096"},{"id":"15252","name":"Piata Unirii 3","latitude":"44.4257","longitude":"26.10331"},{"id":"14162","name":"Pasaj Marasesti","latitude":"44.42246","longitude":"26.10962"},{"id":"14163","name":"Colectiv (Dambovita)","latitude":"44.41957","longitude":"26.11075"},{"id":"14295","name":"Universitatea Crestina Dimitrie Cantemir","latitude":"44.41661","longitude":"26.11259"},{"id":"14168","name":"Liceul Gheorghe Sincai","latitude":"44.41479","longitude":"26.10575"},{"id":"14165","name":"Liceul Gheorghe Sincai","latitude":"44.41322","longitude":"26.10533"},{"id":"14158","name":"Palatul National al Copiilor","latitude":"44.40905","longitude":"26.11306"},{"id":"11758","name":"Soseaua Mihai Bravu","latitude":"44.407869183755","longitude":"26.1200457704544"},{"id":"14156","name":"Costache Stamate","latitude":"44.40426","longitude":"26.12093"},{"id":"14154","name":"Pridvorului","latitude":"44.39936","longitude":"26.12082"},{"id":"14164","name":"Piata Sudului","latitude":"44.39333","longitude":"26.12061"},{"id":"11196","name":"Bulevardul Alexandru Obregia","latitude":"44.3880433117","longitude":"26.1174890888"},{"id":"11197","name":"Dragos Mladinovici","latitude":"44.385321454","longitude":"26.1157188309"},{"id":"11198","name":"Straduintei","latitude":"44.3817023373","longitude":"26.1155364407"},{"id":"11199","name":"Aliorului","latitude":"44.3787884791","longitude":"26.1182830227"},{"id":"11698","name":"Platforma Metalurgiei","latitude":"44.37612","longitude":"26.12056"},{"id":"11699","name":"Editura Aramis","latitude":"44.3743944134","longitude":"26.1214373005"},{"id":"11700","name":"Sere","latitude":"44.370184083","longitude":"26.1234114063"},{"id":"11701","name":"Metro Berceni","latitude":"44.3652448034","longitude":"26.1258468521"},{"id":"11702","name":"U.M.U.C.","latitude":"44.365751022","longitude":"26.1293015373"},{"id":"11703","name":"Dumitru Brumarescu","latitude":"44.3667941254","longitude":"26.1330888165"},{"id":"11704","name":"I.M.G.B. Poarta 3","latitude":"44.3642254498895","longitude":"26.1349652898788"},{"id":"11666","name":"Vulcan Berceni","latitude":"44.3596070731","longitude":"26.1390218628"}]},{"id":"1702","name":"Turnu Magurele - Piata Unirii","geometry":"e~vmGsgp~C?AWPGH@NFT??FRc@ZyDlC??yXvRkCjBm@NuGzEtGdUhDrLZdADn@C^S`@]Xw@d@sGdCm^bN{GfC??ySbImARs@h@{EzEyEhEcHvGcD~CiA`AkAl@sAX_@Fu@Bw@CcAU{@Su@_@kBgAkB_AoDkBqH}D_EaCkAo@uA]_@MkBeAUScBqAaAk@aE{BuAm@y@K_CUo@UYEKBIDQNYFO@uA@cEI}HQqAAuSY}NSiANsAE{B?_FG??wCE?m@Ke@QSe@EQNIZErBCRGNw@`Ak@fA_@v@{@~ASp@?RRxANtA?x@ExFGxCKhCEp@m@zDs@zBQl@k@lAc@hAk@~@}@nBw@pBmCzImBrGcAfDUn@c@|@o@bA??k@l@{@j@aAn@}B?wA?eAmBi@aAwAkCWq@K}@MwD[_NGoBK{@Mk@_@cAaD_H_@q@SXeCtCgE|Eq@h@s@`@w@\\eEnA??}EtAmDdAo@La@NUJF`@Nl@RNf@tBd@dC`CrKh@`C??Jb@NlBCzAEn@eDEqBCqBAYMs@AgDAoC@QBUDsAb@wBJa@BsBF?@??A?","color":"2F91C9","direction":"1","duration":"00:25","stops":[{"id":"11666","name":"Vulcan Berceni","latitude":"44.3596070731","longitude":"26.1390218628"},{"id":"11667","name":"I.M.G.B. Poarta 3","latitude":"44.3637798127273","longitude":"26.135544647026"},{"id":"11668","name":"Dumitru Brumarescu","latitude":"44.3669935401","longitude":"26.1330995453"},{"id":"11669","name":"U.M.U.C.","latitude":"44.3657280122","longitude":"26.1289796722"},{"id":"11670","name":"Metro Berceni","latitude":"44.3654749033","longitude":"26.125921954"},{"id":"11671","name":"Sere","latitude":"44.3712424459","longitude":"26.1230680836"},{"id":"11672","name":"Editura Aramis","latitude":"44.3746781588","longitude":"26.1214265717"},{"id":"11189","name":"Turnu Magurele","latitude":"44.3774392369082","longitude":"26.119902540493"},{"id":"11190","name":"Aliorului","latitude":"44.3792178988","longitude":"26.118132819"},{"id":"11191","name":"Straduintei","latitude":"44.3819860473","longitude":"26.1155686272"},{"id":"11192","name":"Dragos Mladinovici","latitude":"44.385551475","longitude":"26.1162445438"},{"id":"11193","name":"Emil Racovita","latitude":"44.3883883269","longitude":"26.118132819"},{"id":"11194","name":"Piata Sudului","latitude":"44.3921220277","longitude":"26.1204931629"},{"id":"14152","name":"Soseaua Oltenitei","latitude":"44.39465","longitude":"26.12085"},{"id":"14153","name":"Pridvorului","latitude":"44.40002","longitude":"26.12113"},{"id":"14155","name":"Costache Stamate","latitude":"44.40349","longitude":"26.12122"},{"id":"11759","name":"Bulevardul Tineretului","latitude":"44.4078998414637","longitude":"26.1203676355361"},{"id":"14157","name":"Palatul National al Copiilor","latitude":"44.40847","longitude":"26.11604"},{"id":"14159","name":"Parcul Tineretului","latitude":"44.40975","longitude":"26.11216"},{"id":"14160","name":"Visana","latitude":"44.4107","longitude":"26.11021"},{"id":"14169","name":"Liceul Gheorghe Sincai","latitude":"44.41459","longitude":"26.10553"},{"id":"14296","name":"Universitatea Crestina Dimitrie Cantemir","latitude":"44.41633","longitude":"26.1126"},{"id":"14310","name":"Pasaj Marasesti","latitude":"44.42267","longitude":"26.1085"},{"id":"14309","name":"Bulevardul Dimitrie Cantemir","latitude":"44.4217","longitude":"26.10419"},{"id":"15253","name":"Piata Unirii 4","latitude":"44.42747","longitude":"26.10408"}]}]}